,ID,location_name,lat,long
0,2353158,Zyonguen,12.36667,-0.45
1,2353159,Zyiliwele,12.38333,-2.73333
2,2353160,Zyanko,12.78333,-0.41667
3,2353161,Zouta,13.14908,-1.28197
4,2353162,Zourtenga,12.957410000000001,-1.28745
5,2353163,Zourma,11.390830000000001,-0.79556
6,2353164,Zouri,11.65,-1.2833299999999999
7,2353165,Zoura,13.28261,-1.47644
8,2353166,Zoungwa,13.21895,-1.9714200000000002
9,2353167,Zoungou,12.14441,-0.53169
10,2353168,Zoungo,13.28675,-1.14636
11,2353169,Zoundweogo Province,11.58333,-1.0
12,2353170,Zoundri,12.42718,-1.90874
13,2353171,Zoundi,12.73972,-1.51522
14,2353172,Zounara,14.0603,-0.9666
15,2353174,Zoumbara,12.88333,-3.15
16,2353175,Zouma,13.335429999999999,-2.05511
17,2353176,Zouma,12.66667,-2.91667
18,2353177,Zouma,12.59733,-1.6022100000000001
19,2353178,Zoum,12.76667,-3.9833300000000005
20,2353179,Zouloumtenga,12.85,-0.9833299999999999
21,2353180,Zoulougou,12.11667,-1.98333
22,2353181,Zouli,12.03333,-0.43333
23,2353182,Zoula,12.25,-2.46667
24,2353183,Zoukoundougou,13.47294,-1.82887
25,2353184,Zougountenga,13.435279999999999,-0.6169100000000001
26,2353185,Zougoungo,13.0482,-2.2187
27,2353186,Zongouma,13.91409,-2.2471099999999997
28,2353187,Zougouma,13.56335,-2.5199599999999998
29,2353188,Zougo,12.8,-2.63333
30,2353189,Zoudounga,13.76135,-2.34125
31,2353190,Zouandoma,13.315,-2.13058
32,2353191,Zorogo,12.25,-0.28333
33,2353192,Zoro,11.1,-2.05
34,2353193,Zorkoum,13.148879999999998,-1.16584
35,2353194,Zori,11.3,-3.95
36,2353195,Zorgongo,12.26667,-0.8
37,2353196,Zorgo,13.06589,-0.66919
38,2353197,Zorgo,12.24922,-0.61527
39,2353198,Zorgo,11.7,-1.33333
40,2353199,Zorga,13.02002,-0.6681699999999999
41,2353200,Zore,12.28333,-0.45
42,2353201,Zorbo,13.5327,-0.97824
43,2353202,Zoongo,12.85,-0.58333
44,2353203,Zonzo,10.16667,-2.9
45,2353204,Zontibe,13.41516,-1.25175
46,2353205,Zonse,11.37,-0.615
47,2353206,Zono,10.41667,-3.56667
48,2353207,Zonkom,14.60803,0.04339
49,2353208,Zonkin,12.98639,-0.9914
50,2353209,Zongpiguen,12.25,-0.78333
51,2353210,Zongoy,14.468079999999999,-0.11281
52,2353211,Zongowaetan,13.79124,0.54774
53,2353212,Zongopika,12.21667,-0.6333300000000001
54,2353213,Zongo,13.4246,-1.22507
55,2353214,Zongo,13.22745,-2.37596
56,2353215,Zongo,12.34595,-1.59856
57,2353216,Zonesso,11.16497,-4.17687
58,2353217,Zoner,11.21667,-2.83333
59,2353218,Zonankui,12.68333,-3.58333
60,2353219,Zon,13.72901,-1.61531
61,2353220,Zon,11.28333,-1.4
62,2353221,Zomouna,11.2,-2.46667
63,2353222,Zomnogo,13.251120000000002,-0.45782
64,2353223,Zomnogo,12.61667,-0.38333
65,2353224,Zomkalga,13.45749,-1.88202
66,2353225,Zomkalga,13.18893,-1.48445
67,2353226,Zom,13.82785,-2.40367
68,2353227,Zolo,12.8,-2.5666700000000002
69,2353228,Zolo,10.81667,-3.05
70,2353229,Zogore,13.401689999999999,-2.5924400000000003
71,2353230,Zogbega,12.86667,-2.1
72,2353231,Zoetgomde,12.53333,-2.2
73,2353232,Zodoum,10.98333,-3.03333
74,2353233,Zoamba,12.76667,-0.8333299999999999
75,2353234,Zoaga,11.03806,-0.59028
76,2353235,Zizon,12.8,-2.26667
77,2353236,Zizi,12.96667,-2.9333299999999998
78,2353237,Zitoessin,13.07456,-2.39649
79,2353238,Zitenga,12.748460000000001,-1.30989
80,2353239,Zissegre,12.66667,-0.38333
81,2353240,Zire,13.273279999999998,-2.1114900000000003
82,2353241,Zipele,12.77965,-1.73737
83,2353242,Zipelaga,11.06667,-0.48333000000000004
84,2353243,Ziou,11.03611,-0.77917
85,2353244,Zio,11.91667,-1.7
86,2353245,Zinye,12.25,-0.6
87,2353246,Zintio,11.31667,-3.2
88,2353247,Zintenga,11.83333,-0.76667
89,2353248,Zinou,11.86667,-2.28333
90,2353249,Zinkui,11.98333,-3.21667
91,2353250,Zinka Folapouo,10.13333,-2.91667
92,2353251,Zinka,10.13333,-2.91667
93,2353252,Ziniguise,12.11667,-2.11667
94,2353253,Zinigma,13.40905,-1.71803
95,2353254,Zinigen,13.0,-2.28333
96,2353255,Zinibeogo,13.76769,-0.74324
97,2353256,Zinibeogo,13.866229999999998,-0.73761
98,2353257,Ziniare,12.58186,-1.2971
99,2353258,Zinguina,11.90347,-4.96788
100,2353259,Zingedagen,12.18333,-2.1
101,2353260,Zinekwe,11.91667,-1.31667
102,2353261,Zinedi,9.96667,-2.8
103,2353262,Zindiguesse,13.28604,-2.37295
104,2353263,Zinaziella,11.23333,-0.65
105,2353264,Zinado,12.18333,-0.66667
106,2353265,Zinab,12.78333,-0.9833299999999999
107,2353266,Zina,12.01667,-3.4
108,2353267,Saben,12.85233,-1.79751
109,2353268,Sabsin,12.10507,-1.5512700000000001
110,2353269,Zimsa,13.310839999999999,-1.09723
111,2353270,Zimou,13.08537,-2.9114
112,2353271,Zimba,13.5048,-2.43669
113,2353272,Zimkouri,12.85,-0.51667
114,2353273,Zimkorom,12.4,-0.16667
115,2353274,Zimiouzou,12.71667,-2.2
116,2353275,Zimidou,13.186779999999999,-1.2623
117,2353276,Zimidi,12.8,-2.7
118,2353277,Zimidem,12.61667,-2.16667
119,2353278,Zimasso,12.66667,-3.6166699999999996
120,2353279,Zilateoun,9.95,-2.85
121,2353280,Zilaoro,13.03309,-1.8862900000000002
122,2353281,Zikomtenga,12.2394,-1.4552
123,2353282,Zikieme,12.93333,-0.9833299999999999
124,2353283,Ziguiberi,14.70817,-0.03178
125,2353284,Ziguenoguen,12.33333,-0.71667
126,2353285,Zigo,12.39247,-1.78693
127,2353286,Zigla Polose,11.7,-0.6333300000000001
128,2353287,Zigla Pakala,11.75,-0.58333
129,2353288,Zigla Koulpele,11.71667,-0.6333300000000001
130,2353289,Zigla,11.65,-1.01667
131,2353290,Foret Classee de Ziga,12.471060000000001,-1.08644
132,2353291,Ziga,13.416039999999999,-2.31252
133,2353292,Ziga,12.61075,-0.83311
134,2353293,Ziga,12.56475,-1.11204
135,2353294,Ziga,12.36667,-3.8
136,2353295,Zenem Tanga,13.71411,-2.62378
137,2353296,Ziedougou,10.41667,-5.05
138,2353297,Zibtenga,12.88333,-0.9
139,2353298,Zibri Koulibila,12.6257,-1.04929
140,2353299,Zibri,12.62495,-1.00823
141,2353300,Zibako,12.55132,-1.64205
142,2353301,Ziasso,12.15,-3.33333
143,2353302,Zambele,13.01424,-2.21426
144,2353303,Zey Bala,14.98215,-0.6149600000000001
145,2353304,Zetonasso,11.27755,-5.22688
146,2353305,Zetgomde,12.5,-0.71667
147,2353306,Gounghin,12.06677,-1.42134
148,2353307,Zesa,12.71667,-2.45
149,2353308,Zerounda,12.86985,-1.93915
150,2353309,Zerkoum,12.38333,-2.0666700000000002
151,2353310,Zerkom,12.23616,-1.95317
152,2353311,Zeredeguen,13.07382,-1.14553
153,2353312,Zerebougou,11.0,-0.58333
154,2353313,Zeoule,12.26667,-3.5333300000000003
155,2353314,Zeoula,12.26667,-3.4833300000000005
156,2353315,Zennloua,11.88333,-1.9666700000000001
157,2353316,Zenin,11.86667,-2.48333
158,2353317,Zenedere,12.76667,-2.2
159,2353318,Zemtoega,11.76667,-1.2833299999999999
160,2353319,Zempasgo,12.25,-0.73333
161,2353320,Zempana,12.8,-3.5
162,2353321,Zemouapare,10.21667,-2.83333
163,2353322,Zelougou,11.13333,-0.6333300000000001
164,2353323,Zelogo,10.96667,-0.88333
165,2353324,Zelemsonde,13.563170000000001,-0.47425
166,2353325,Zelasie,12.45,-2.8
167,2353326,Zila,12.45774,-1.79665
168,2353327,Zekounga,12.389669999999999,-1.6753200000000001
169,2353328,Zeko,12.25,-0.58333
170,2353329,Zinkemzougou,12.315010000000001,-1.91917
171,2353330,Zeka,13.08212,-1.305
172,2353331,Zehui,12.9067,-4.159
173,2353332,Zinguedesse,12.24661,-1.58402
174,2353333,Zengresse,12.2092,-1.3813
175,2353334,Zeguedesse,12.00135,-1.24194
176,2353335,Zeguedeguen,12.95735,-0.45498999999999995
177,2353336,Zeguedeguin,11.9,-1.45
178,2353337,Zeguedeguen,12.093,-1.9756200000000002
179,2353338,Zeguedega,12.3,-0.53333
180,2353339,Zeguedega,11.91667,-0.38333
181,2353340,Zegednogo,13.223379999999999,-1.31584
182,2353341,Zeguedeguen,12.97368,-1.40604
183,2353342,Zeguedeguen I,12.78853,-1.89159
184,2353343,Zeguedeguen II,12.79176,-1.73275
185,2353344,Zecco,11.03333,-0.85
186,2353345,Zebekaha,10.46667,-5.35
187,2353346,Zay,13.99,-2.3580900000000002
188,2353347,Zawara,11.78333,-2.58333
189,2353348,Zawadoro,12.08333,-0.25
190,2353349,Zavara,11.5,-1.88333
191,2353350,Zarsin,12.11009,-1.31377
192,2353351,Zargome,11.63333,-0.016669999999999997
193,2353352,Zargo,11.68333,-0.6166699999999999
194,2353353,Zarfi,11.16667,-0.016669999999999997
195,2353354,Zaren,13.194120000000002,-0.91671
196,2353355,Zarayn,12.53333,-2.11667
197,2353356,Zaran Kipsi,14.683670000000001,-0.89215
198,2353357,Zarahougo,11.88333,-1.2833299999999999
199,2353358,Zarabili,11.78333,-1.2166700000000001
200,2353359,Zara,12.73333,-2.75
201,2353360,Zaptinga,11.71667,-1.1
202,2353361,Zaouna,13.06662,-1.5388700000000002
203,2353362,Zaoro,12.15,-0.28333
204,2353363,Zaongo,12.91667,-0.58333
205,2353364,Zaongo,12.21667,-0.38333
206,2353365,Zao,11.85,-2.11667
207,2353366,Zanzi,13.01473,-1.20985
208,2353367,Zanvi,12.95963,-1.14586
209,2353368,Zanren,12.05,-0.28333
210,2353369,Zanre,12.06667,-0.05
211,2353370,Zano,13.670620000000001,-2.31358
212,2353371,Zano,13.343539999999999,-1.6983
213,2353372,Zanna,13.488579999999999,-2.17542
214,2353373,Zankolaga,13.382320000000002,-2.41761
215,2353374,Zangwi,13.03406,-1.31351
216,2353375,Zangokala,10.85,-5.28333
217,2353376,Zangogo,11.86667,-1.2
218,2353377,Zangogo,11.76667,-1.38333
219,2353378,Zanghindiesse,12.36472,-1.71061
220,2353379,Zanguelila,12.94009,-1.46801
221,2353380,Zangboni,11.36667,-2.9333299999999998
222,2353381,Zangbega,12.58643,-1.31636
223,2353382,Zangazoni,11.90484,-4.70916
224,2353383,Zanganyiara,10.51667,-5.36667
225,2353384,Zanga,10.4,-5.41667
226,2353385,Zanfara,11.75309,-5.0148
227,2353386,Zandoure,12.93333,-0.53333
228,2353387,Zandkom,13.14071,-1.5526
229,2353388,Zandekaha,10.61667,-5.2
230,2353389,Zanawa,10.98333,-3.5
231,2353390,Zana Mogo,13.75189,-1.6882
232,2353391,Zana,13.790239999999999,-1.70029
233,2353392,Zan,11.15,-0.3
234,2353393,Zamren,12.20932,-1.94356
235,2353394,Zamse,12.002460000000001,-1.29199
236,2353395,Zamse,13.44859,-1.79485
237,2353396,Zamse,12.53333,-0.71667
238,2353397,Zamse,12.36667,-0.36667
239,2353398,Zamo,12.01667,-2.71667
240,2353399,Zamnongho,12.20995,-1.55386
241,2353400,Zamne,14.1572,-2.21884
242,2353401,Zammse,11.7,-1.1
243,2353402,Zammse,11.55,-1.18333
244,2353403,Zamiolo,13.663670000000002,-2.4785
245,2353404,Zame,11.08333,-0.56667
246,2353405,Zamdogo,13.0815,-2.02048
247,2353406,Zambo,10.81667,-3.0
248,2353407,Zambanga,12.73333,-0.56667
249,2353408,Zambanaga,12.23449,-1.68208
250,2353409,Zambalaga,11.2,-0.26666999999999996
251,2353410,Zambalaga,11.31667,-0.31667
252,2353411,Zambala,12.6,-2.46667
253,2353412,Zamarkoy,14.829,-0.5187
254,2353413,Zamakologo,11.58495,-4.72232
255,2353414,Zam,12.35,-0.81667
256,2353415,Zam,12.33959,-0.83189
257,2353416,Zalo,11.96667,-1.9
258,2353417,Zalagade,11.81667,-1.2
259,2353418,Zakuy,12.53333,-3.41667
260,2353419,Zakui,13.0369,-4.1495
261,2353420,Zakui,12.28333,-3.5166699999999995
262,2353421,Zakoure,12.67512,-1.56179
263,2353422,Zako,12.03333,-0.15
264,2353423,Zakin,12.35793,-1.3722
265,2353424,Zaken,12.3,-2.33333
266,2353425,Zake,12.18333,-2.41667
267,2353426,Zakarga,12.31667,-0.51667
268,2353427,Zaka,11.96667,-0.016669999999999997
269,2353428,Zainzain,11.2,-0.35
270,2353429,Zahatenga,12.86667,-0.9833299999999999
271,2353430,Zagtouli,12.329239999999999,-1.62566
272,2353431,Zagaltenga,12.96548,-1.45688
273,2353432,Zeguedessen,12.72177,-1.46086
274,2353433,Zaeltenga,12.9206,-1.32066
275,2353434,Zado,12.13333,-2.66667
276,2353435,Zadierla,11.848339999999999,-5.096080000000001
277,2353436,Zabre,11.1825,-0.63222
278,2353437,Zabo,11.36667,-3.85
279,2353438,Zablou,13.14078,-1.12303
280,2353439,Zabga,12.85,-0.53333
281,2353440,Zabeadougou,10.56667,-5.36667
282,2353441,Zabartanga,12.8,-0.9333299999999999
283,2353442,Zaba,12.78333,-3.2
284,2353443,Yoyou,11.73333,-2.51667
285,2353444,Yoyo,11.18333,-0.016669999999999997
286,2353445,Yourouna,13.1247,-4.3111
287,2353446,Youngou,11.11667,-0.58333
288,2353447,Youmpoura,10.51667,-3.3
289,2353448,Youmbara,10.51667,-3.1
290,2353449,Youloupo,12.56667,-2.75
291,2353450,Youlou,12.28333,-2.9
292,2353451,Youlo,10.58333,-3.08333
293,2353452,Youlabako,10.41667,-3.1
294,2353453,Youkouka,11.05,-0.5
295,2353454,Youkoa,10.75,-5.11667
296,2353455,Youken,12.21667,-0.05
297,2353456,Yougui,12.66667,-0.25
298,2353457,Yougoupyongou,12.38333,-0.1
299,2353458,Yougoupele,12.048580000000001,-1.55864
300,2353459,Yougounini,13.27595,-1.6421700000000001
301,2353460,Yougoul Mande,12.3,-0.71667
302,2353461,Youga,11.06537,-0.45196000000000003
303,2353462,Yougtenga,12.002889999999999,-1.4148
304,2353463,Youbitenga,12.84423,-1.45141
305,2353464,Youba Naloto,12.71667,-0.95
306,2353465,Youbga,12.77323,-1.70144
307,2353466,Youba,13.667829999999999,-2.3753599999999997
308,2353467,Youba,12.73333,-0.9333299999999999
309,2353468,You,13.701670000000002,-2.1410099999999996
310,2353469,Yorogo,11.95,-1.31667
311,2353470,Yoroga,12.71667,-2.08333
312,2353471,Yoro,11.06667,-2.36667
313,2353472,Yargo,12.30457,-1.50442
314,2353473,Dar Salam,12.361460000000001,-1.6390900000000002
315,2353474,Yorgo,12.0015,-1.35606
316,2353475,Yoren,13.06695,0.1447
317,2353476,Yoreko,11.23333,-0.55
318,2353477,Yonkui,12.6,-3.45
319,2353478,Yongono,14.087779999999999,-2.58305
320,2353479,Yona,12.1,-3.3833300000000004
321,2353480,Yona,11.96667,-3.3833300000000004
322,2353481,Yomena,9.96667,-3.15
323,2353482,Yomboli,14.646510000000001,-0.30264
324,2353483,Yolontera,10.3,-2.96667
325,2353484,Yolonioro,10.73333,-3.4
326,2353485,Yolonguira,10.1,-3.45
327,2353486,Yolga,11.51667,-0.06667000000000001
328,2353487,Yoldeteoun,9.85,-2.9333299999999998
329,2353488,Yokiare,10.85,-3.01667
330,2353489,Yoi,13.8072,0.12317
331,2353490,Yogadyoaga,12.70503,2.06318
332,2353491,Yoda,13.32911,-0.57536
333,2353492,Yobiri,11.76667,1.7
334,2353493,Yoba,13.425370000000001,-1.8143799999999999
335,2353494,Yoatenga,12.33333,-0.28333
336,2353495,Yoada,13.73518,-2.17009
337,2353496,Yo,13.0263,-3.365
338,2353497,Yo,11.3,-1.0
339,2353498,Yo,11.25,-0.96667
340,2353499,Yo,11.05,-3.05
341,2353500,Yitenga,12.93333,-0.28333
342,2353501,Yisepougo,12.71667,-2.75
343,2353502,Yirim,13.25199,-1.7777
344,2353503,Yeribou,13.519210000000001,-2.15078
345,2353504,Yirane,12.71362,-1.2089299999999998
346,2353505,Yinou,13.307929999999999,-1.89422
347,2353506,Yinga,11.58333,-2.26667
348,2353507,Yimouga,12.68333,-2.45
349,2353508,Yilou,13.011280000000001,-1.54665
350,2353509,Yilliale,12.76667,-2.33333
351,2353510,Yilartenga,12.869530000000001,-1.28677
352,2353511,Yikoudougo,12.43333,-0.71667
353,2353512,Yikoudgo,13.24475,-0.9543200000000001
354,2353513,Yikoudgo,13.09762,-1.4940799999999999
355,2353514,Yierte,14.540579999999999,-1.51893
356,2353515,Yetolo,10.55,-5.38333
357,2353516,Zetegomde,12.95802,-1.9569400000000001
358,2353517,Yessebe,10.31667,-4.0166699999999995
359,2353518,Yerimbou,12.13606,1.4618200000000001
360,2353519,Yerimbandi,12.352219999999999,1.4026399999999999
361,2353520,Yerifoula,10.46667,-3.58333
362,2353521,Yeridyon,12.41667,-2.6833299999999998
363,2353522,Yeriba,11.46667,-0.6333300000000001
364,2353523,Yergue,14.08045,-2.19112
365,2353524,Yeregane,11.2,-3.05
366,2353525,Yerefoula Gans,10.45,-3.6166699999999996
367,2353526,Yerefe,11.33333,-3.03333
368,2353527,Yera,13.0089,-3.4421
369,2353528,Yepela,10.65,-3.01667
370,2353529,Yeou,13.8449,-0.58513
371,2353530,Yansa Gonion,13.58574,-2.9342200000000003
372,2353531,Yansa,13.601289999999999,-2.92804
373,2353532,Yenvedougou,12.93333,-3.9666699999999997
374,2353533,Yentyaori,13.02132,0.14237
375,2353534,Yentougoy Ekio,14.32613,0.1438
376,2353535,Yentenga,12.03333,-0.06667000000000001
377,2353536,Yensouti,13.3185,0.33545
378,2353537,Yensi,14.009910000000001,-2.84658
379,2353538,Yensendini,12.01667,0.2
380,2353539,Yenkui,12.46667,-3.85
381,2353540,Yengue,11.20779,-4.441319999999999
382,2353541,Yendipare,12.7012,2.0381
383,2353542,Yendibore,12.65668,1.97469
384,2353543,Foret Classee de Yendere,10.15,-5.066669999999999
385,2353544,Yendere,10.2,-4.96667
386,2353545,Yenbiro,10.18333,-3.43333
387,2353546,Yemsende,13.37566,-1.8678299999999999
388,2353547,Yembago,9.68333,-2.9333299999999998
389,2353548,Yelou,12.067219999999999,-1.72681
390,2353549,Yelmanarle,12.78333,-2.45
391,2353550,Yelkoto,13.32727,-1.71744
392,2353551,Yelintara,9.98333,-3.41667
393,2353552,Yelinfoybou,12.31667,0.6333300000000001
394,2353553,Yelimbiri,13.42105,0.44131000000000004
395,2353554,Yeli,12.6,-2.08333
396,2353555,Yelenbidou,12.81667,-0.21666999999999997
397,2353556,Yelembasse,12.35,-0.28333
398,2353557,Yelbissi,11.0,-0.76667
399,2353558,Yehon,11.3,-3.4
400,2353559,Yegueresso,11.155,-4.156219999999999
401,2353560,Yeguere,10.984060000000001,-4.1024199999999995
402,2353561,Yebel Bakolanga,14.0323,0.22534
403,2353562,Yebelala,10.73333,-3.21667
404,2353563,Yebande,14.3168,-0.1942
405,2353564,Yeairi,13.44161,-2.9597
406,2353565,Ye,12.6,-3.11667
407,2353566,Yazougou,13.33411,-0.09022999999999999
408,2353567,Yaya,12.71667,-2.78333
409,2353568,Province du Yatenga,13.583329999999998,-2.41667
410,2353569,Yate,14.170570000000001,-1.7085700000000001
411,2353570,Yatako,14.051429999999998,0.35711
412,2353571,Yasso,12.363380000000001,-4.02918
413,2353572,Yartenga,11.71667,-0.15
414,2353573,Yarsi,12.86667,-2.0666700000000002
415,2353574,Yarseyi,12.21667,-2.05
416,2353575,Yarsin,12.74756,-1.77147
417,2353576,Yarse,13.615110000000001,-0.88421
418,2353577,Yarse,12.6587,-1.00911
419,2353578,Yargo,12.96415,-1.91783
420,2353579,Yarogo,12.88333,-2.46667
421,2353580,Toubre,12.841610000000001,-1.5353
422,2353581,Yarogo,12.71411,-1.7213
423,2353582,Yarogo,11.81667,-1.2833299999999999
424,2353583,Yaroguin,12.393889999999999,-1.98386
425,2353584,Yarobade,12.98333,0.08333
426,2353585,Yaro,10.8,-3.45
427,2353586,Yaro,11.25,-1.2
428,2353587,Yarkare,12.2,-0.13333
429,2353588,Yalka,13.44244,-2.49931
430,2353589,Yari,13.348239999999999,-0.07835
431,2353590,Yargou,12.68333,0.48333000000000004
432,2353591,Yargo,13.63115,-2.64266
433,2353592,Yargo,13.46735,-1.55519
434,2353593,Yargo,13.39885,-2.60429
435,2353594,Yargo,13.1723,-1.85608
436,2353595,Yargo,13.05097,-1.37497
437,2353596,Yargo,12.7376,-1.29865
438,2353597,Yargo,12.65,-0.58333
439,2353598,Yargo,12.36667,-0.86667
440,2353599,Yargo,12.31667,-0.51667
441,2353600,Yargo,12.26667,-0.43333
442,2353601,Yargo,12.23333,-0.36667
443,2353602,Yargo,12.21667,-2.08333
444,2353603,Yargo,12.18333,-2.1833299999999998
445,2353604,Yargo,12.06667,-0.28333
446,2353605,Yargo,11.81667,-1.15
447,2353606,Yargatenga,11.2125,0.00528
448,2353607,Yarga,13.227789999999999,-0.02872
449,2353608,Yareyoume,12.3,-0.06667000000000001
450,2353609,Seno Yarendi,14.80505,-0.77394
451,2353610,Yarebila,12.81667,-2.0
452,2353611,Yaraye,13.2123,-4.2199
453,2353612,Yaran,13.427999999999999,-4.0018
454,2353613,Yaran,12.96667,-3.45
455,2353614,Yaramou,10.26667,-5.0166699999999995
456,2353615,Yaramoko,11.78823,-3.2924900000000004
457,2353616,Yapala,11.08333,-0.48333000000000004
458,2353617,Yaouren,12.56667,-0.75
459,2353618,Yaongo,12.62182,-0.26469000000000004
460,2353619,Yaogue,13.159970000000001,-1.6052899999999999
461,2353620,Yaogo,12.566360000000001,1.29929
462,2353621,Yaoguen,12.79031,-1.02746
463,2353622,Yaoghin,12.60268,-1.35277
464,2353623,Yaoghin,12.3298,-1.60734
465,2353624,Yaogen,12.23333,-2.1
466,2353625,Yaoghin,12.193769999999999,-1.76279
467,2353626,Yanyonade,13.189620000000001,0.17514000000000002
468,2353627,Yante Digna,14.15121,-2.17778
469,2353628,Yantara,13.42945,0.65042
470,2353629,Yansare,12.09481,-1.43515
471,2353630,Yankoro,12.01667,-3.35
472,2353631,Yankasso,12.205810000000001,-3.1993400000000003
473,2353632,Yanga,12.73354,-1.31263
474,2353633,Yanga,12.47786,-1.4995399999999999
475,2353634,Yanga,12.12515,-1.31368
476,2353635,Yanengue,12.59507,-1.5149299999999999
477,2353636,Yandima,12.66667,0.25
478,2353637,Yandeguen,12.260060000000001,-1.97427
479,2353638,Yandaga,12.88112,-1.00779
480,2353639,Yamtohiga,12.7075,-1.7962099999999999
481,2353640,Yamtenga,12.34849,-1.44766
482,2353641,Yamou,12.03333,-3.33333
483,2353642,Yamotenga,12.56667,-0.8
484,2353643,Yamganguen,12.06667,-0.43333
485,2353644,Yamboumbou,14.12623,-2.09063
486,2353645,Yamba,12.52205,-1.4982
487,2353646,Yanmba,12.29745,0.33864
488,2353647,Yamanye,13.18377,-1.7330400000000001
489,2353649,Yamana,12.81066,-1.32026
490,2353650,Yamako,11.93333,-1.0333299999999999
491,2353651,Yamagyo,12.6,-2.6
492,2353652,Yama,13.39675,0.9252799999999999
493,2353653,Yaltenga,12.951089999999999,-1.90685
494,2353654,Yalshrika,13.13406,-0.35854
495,2353655,Yalgoueogo,12.90822,-1.00647
496,2353656,Yalore,13.23664,-0.43513
497,2353657,Yalogwengo,13.163070000000001,-1.4121
498,2353658,Yalo Gourounga,11.95,-1.91667
499,2353659,Yalogo,12.48075,-1.0748
500,2353660,Yalogo,13.48008,-0.8225
501,2353661,Yalogo,12.53333,-0.6
502,2353662,Yalogen,12.81667,-0.58333
503,2353663,Yallo,12.98333,-3.93333
504,2353664,Yalle,13.371310000000001,-2.27658
505,2353665,Yalkoum,13.49276,-0.11875999999999999
506,2353666,Yalka,13.49045,-2.5682400000000003
507,2353667,Yalka,13.4985,-1.54752
508,2353668,Yali,13.523370000000002,0.44766999999999996
509,2353669,Yargo,12.94978,-1.26472
510,2353670,Yalgo,12.93333,-0.85
511,2353672,Yalga,13.48538,0.70523
512,2353673,Yalga,13.2674,-1.43688
513,2353674,Yalema,14.6265,-1.24565
514,2353675,Yale,11.23333,-1.9666700000000001
515,2353676,Yelbouga,11.11917,-1.91639
516,2353677,Yalatenga,12.79903,-1.52607
517,2353678,Yalasso,11.2,-3.9
518,2353679,Yalankoro,13.2683,-3.9172
519,2353680,Yalanga,14.27846,-1.04358
520,2353681,Yalaga,13.859929999999999,-2.2551
521,2353682,Yakzougou,12.5,-2.1833299999999998
522,2353683,Yakranyimasso,10.61667,-5.28333
523,2353684,Yakouta,14.07584,-0.13689
524,2353685,Yakouba,11.46045,-4.27095
525,2353686,Yakone,13.554129999999999,-0.88226
526,2353687,Yako,11.6,-1.35
527,2353688,Yako,12.9591,-2.26075
528,2353689,Yakin,11.997069999999999,-1.5618
529,2353690,Yakin,11.8,-1.15
530,2353691,Yakin,11.63333,-1.15
531,2353692,Yake,12.9444,-1.71017
532,2353693,Yake,12.92876,-1.7592599999999998
533,2353694,Yakala,11.51667,-0.71667
534,2353695,Yakabe,12.28333,-0.2
535,2353696,Yaka,13.39029,-1.26827
536,2353697,Yaka,13.20396,0.09986
537,2353698,Yaio,12.91667,-3.4666699999999997
538,2353699,Yaika,12.2,-0.8
539,2353700,Yahotinga,12.73333,-0.55
540,2353701,Yaguen,13.14533,-0.38644
541,2353702,Yaguema,12.40969,-1.62415
542,2353703,Yagou,12.23333,0.35
543,2353704,Yagamaro,13.40593,0.46088
544,2353705,Yagaha,13.41787,0.5394800000000001
545,2353706,Yagabtenga,12.91667,-0.71667
546,2353707,Yadoumyela,12.75,-2.46667
547,2353708,Yada,12.02315,-1.98355
548,2353709,Yaktenga,12.58361,-1.84028
549,2353710,Yabouinia,10.53333,-5.08333
550,2353711,Yabonsongo,13.657429999999998,-2.4012
551,2353712,Yabogo,13.37551,-2.56849
552,2353713,Foret Classee de Yabo,12.988010000000001,-1.5056100000000001
553,2353714,Yabo,12.97635,-1.49542
554,2353715,Yabe,11.58333,-3.7833300000000003
555,2353716,Yabanse,11.15,-0.68333
556,2353717,Yaba,12.870289999999999,-2.8571299999999997
557,2353718,Ya,11.5,-2.51667
558,2353719,Woyboyre,12.78333,-0.016669999999999997
559,2353720,Wouskongo,12.3,-0.95
560,2353721,Woumtenga,12.24661,-1.67012
561,2353722,Woumitoguen,12.31667,-0.85
562,2353723,Oulmasoutou,13.69958,0.16695
563,2353724,Woula,13.095999999999998,-4.0533
564,2353725,Ouokinga Ouobilo,13.6427,-2.67
565,2353726,Wote,12.83333,-3.65
566,2353727,Wortore,13.6774,0.25233
567,2353728,Woroma,11.75089,-4.3910800000000005
568,2353729,Worokui,12.31667,-3.5166699999999995
569,2353730,Worobgo,12.07062,-1.24429
570,2353731,Foret Classee de Woro,12.35,-2.9333299999999998
571,2353732,Ouro,13.857479999999999,-2.1177099999999998
572,2353733,Woro,12.35,-2.9
573,2353734,Woro,12.0,-2.41667
574,2353735,Woro,11.7,-3.68333
575,2353736,Ouore Yarse,13.211929999999999,-2.62578
576,2353737,Ouore,12.56075,-1.03693
577,2353738,Woranga,12.9,0.9
578,2353739,Ouonon,13.04465,-2.1237
579,2353740,Wonkoro,10.6,-3.65
580,2353741,Oumsom,13.384260000000001,-2.16987
581,2353742,Wolopekaha,10.7,-5.38333
582,2353743,Wole,13.437710000000001,-0.54091
583,2353744,Wolbye,12.33333,-2.9
584,2353745,Wolankoto,11.28987,-4.36869
585,2353746,Wodo,10.3,-3.75
586,2353747,Wedbila,12.15738,-1.42127
587,2353748,Wobzonguen,12.08333,-0.06667000000000001
588,2353749,Wizin Kpoperi,10.95,-2.85
589,2353750,Wizini,10.93333,-2.86667
590,2353751,Ouidtenga,12.79062,-1.7484
591,2353752,Wiridia,10.8,-3.4
592,2353753,Wiri,11.21667,-1.61667
593,2353754,Oueria,12.927769999999999,-1.08047
594,2353755,Win Welena,10.15,-3.35
595,2353756,Wintobaka,13.05531,-1.2538799999999999
596,2353757,Wintiara,10.46667,-4.683330000000001
597,2353758,Winde Oulo,14.050970000000001,-0.28065
598,2353759,Winba,12.63333,-2.76667
599,2353760,Win,10.88333,-3.5333300000000003
600,2353761,Wilmisensi,12.05,-0.18333
601,2353762,Wiliga,11.8,-1.31667
602,2353763,Wiho,10.28333,-2.95
603,2353764,Widou,12.43333,-2.11667
604,2353765,Widi,11.93333,-1.58333
605,2353767,Wezala Bere,12.31667,-3.08333
606,2353768,Wezala,12.3,-3.0666700000000002
607,2353770,Wetina,12.28333,-3.56667
608,2353771,Ouetigue,13.327279999999998,-2.28137
609,2353772,Weti,12.03333,-2.4333299999999998
610,2353773,Wesentenga,13.1074,-1.21832
611,2353774,Wesam,12.15,-2.2
612,2353775,Werla,13.20626,-1.3463100000000001
613,2353776,Weresse,13.0944,-3.6676
614,2353777,Werekui,12.86667,-4.183330000000001
615,2353778,Were,11.44506,-3.98317
616,2353779,Were,13.16724,-2.5363900000000004
617,2353780,Were,13.0321,-3.4722
618,2353781,Were,11.83244,-4.8215900000000005
619,2353782,Weotenga,12.36667,-0.9333299999999999
620,2353783,Wensen,12.11667,-0.11667000000000001
621,2353784,Wenontenga,12.93333,-2.88333
622,2353785,Wendou,14.03761,-0.06308
623,2353786,Wende,13.51596,0.312
624,2353787,Wenare,12.6,-2.51667
625,2353788,Wemtinga,11.96667,-1.36667
626,2353790,Wemtinga,11.56667,-1.08333
627,2353791,Wemtenga,13.12345,-2.03203
628,2353792,Wemtenga,12.33333,-0.65
629,2353793,Wamsey Tanga,13.69089,-2.65386
630,2353794,Wembazaka,13.08128,-2.1354599999999997
631,2353795,Ouembairi,13.02822,-2.5829400000000002
632,2353796,Welinbele,10.0,-3.03333
633,2353797,Wele Wele,10.33333,-3.2833300000000003
634,2353798,Wele Wela,10.31667,-3.05
635,2353799,Welba,10.08333,-2.83333
636,2353800,Weknaore,13.962029999999999,-2.41292
637,2353801,Wekere,11.38333,-3.81667
638,2353802,Wei,12.08333,-3.6
639,2353803,Wedoro,12.21667,-0.33333
640,2353804,Wedinse,13.6792,-2.43628
641,2353805,Wedekendou,13.30364,-1.7062599999999999
642,2353806,Wendey Dairi,13.61485,-2.9033900000000004
643,2353807,Weda,13.00963,-1.25068
644,2353808,Weanga,12.6,-0.25
645,2353809,We,11.33608,-4.3343
646,2353810,Oue,12.60032,0.41266
647,2353812,Wazili,12.66667,-2.25
648,2353813,Ouazele,12.81667,-1.48333
649,2353814,Foret Classee de Wayen,12.43544,-1.02406
650,2353815,Wayen,12.34282,-1.00394
651,2353816,Wayalguen,12.81667,-0.6
652,2353817,Ouavousse,13.161179999999998,-2.0038400000000003
653,2353818,Wavouse,12.8,-0.55
654,2353819,Wavousse,12.10919,-1.24165
655,2353820,Wavougue,12.54285,-1.62765
656,2353821,Watyouol,13.951070000000001,-0.32099
657,2353822,Watyouol,13.9309,-0.30418
658,2353823,Watinoma,13.842870000000001,-2.35734
659,2353824,Wattara Ko,10.63333,-5.16667
660,2353825,Watogo,12.45,-2.03333
661,2353826,Ouatinoma,13.610220000000002,-2.28618
662,2353827,Ouatinoma,13.1361,-2.0307
663,2353828,Ouatinoma,12.21379,-1.7196799999999999
664,2353829,Watigue,13.27687,-0.48581
665,2353830,Vatenga,12.65715,-1.6354
666,2353831,Watenename,12.08333,-0.35
667,2353832,Watara,10.33333,-3.55
668,2353833,Watakalanga,14.307960000000001,-0.60138
669,2353834,Wasobe,13.14301,-1.04655
670,2353835,Warpounou,11.21667,-3.13333
671,2353836,Warou,12.91667,-3.26667
672,2353837,Warokui,13.0,-4.2
673,2353838,Waro,11.16667,-2.26667
674,2353839,Warmini,12.18191,-1.52339
675,2353840,Wari,11.21667,-3.7
676,2353841,Warbio,9.93333,-3.5
677,2353842,Warben,12.61667,-0.8
678,2353843,Warana,11.3,-3.91667
679,2353844,Warakui,12.51667,-3.7666699999999995
680,2353845,Waraba,10.48333,-2.88333
681,2353846,Wara,13.0425,-3.2784
682,2353847,Ouara,12.8473,-1.1395899999999999
683,2353848,Poedogo,12.64146,-1.34045
684,2353849,Wara,10.93333,-4.08333
685,2353850,Ouapense,12.984010000000001,-1.8491
686,2353851,Wapati,13.033619999999999,0.54894
687,2353852,Wapare,10.18333,-2.86667
688,2353853,Waouro,10.68333,-5.3
689,2353854,Waoura,10.9,-5.21667
690,2353855,Waouna,10.46667,-3.56667
691,2353856,Wantenga,12.66667,-0.65
692,2353857,Wantarangou,13.34131,0.59011
693,2353858,Wanndo Aoura,13.151270000000002,0.9668100000000001
694,2353859,Wanndo Aoura,13.14894,0.9125700000000001
695,2353860,Wani,11.73333,-3.56667
696,2353861,Wangue,12.91667,-2.4333299999999998
697,2353862,Wangtenga,12.1,-0.65
698,2353863,Wangolope,10.51667,-5.36667
699,2353864,Wangolodougou,10.06667,-4.8
700,2353865,Wangaurdou,14.436779999999999,-0.8190000000000001
701,2353866,Wangara,10.71667,-3.25
702,2353867,Wanga,13.4839,-0.23231
703,2353868,Wanga,11.68333,-3.2
704,2353869,Wande Yalgou,13.52726,0.72634
705,2353870,Wanboue,13.1,-3.9
706,2353871,Wanare,13.444560000000001,-1.9957799999999999
707,2353872,Wanakui,11.73333,-3.7333300000000005
708,2353873,Wami,10.3,-2.88333
709,2353874,Wamena,10.5,-5.11667
710,2353875,Wamena,12.03333,-3.21667
711,2353876,Wamde Takabal,14.404160000000001,-0.9487
712,2353877,Wamde Renere,14.184820000000002,0.16473
713,2353878,Wamde Gorkou,14.116029999999999,0.26954
714,2353879,Wamde Gaigou,14.133329999999999,0.3
715,2353880,Wamde Foba,14.08472,0.2076
716,2353881,Wamdedoguire,13.38884,0.88426
717,2353882,Wamde Balere,14.549660000000001,-0.85588
718,2353883,Wambouli,12.25,-0.23333
719,2353884,Walougou,10.95,0.58333
720,2353885,Walgilga,12.61667,-2.3166700000000002
721,2353886,Waleme,11.21667,-1.3
722,2353887,Walde Diede,14.33182,-0.69603
723,2353888,Wakui,12.58333,-3.8666699999999996
724,2353889,Wakui,11.95,-3.65
725,2353890,Wako,12.26667,-0.3
726,2353891,Wako,11.8,-2.95
727,2353892,Wakanale,11.11667,-2.65
728,2353893,Wahirimabougou,10.38333,-5.45
729,2353894,Wahable,11.31667,-3.0666700000000002
730,2353895,Ouagaya,13.6626,-2.2116
731,2353896,Ouagatenga,12.5718,-1.21831
732,2353897,Wagara,13.89051,-2.5754799999999998
733,2353898,Wagande,13.456079999999998,-2.27727
734,2353899,Wagalika,14.41874,-0.8735799999999999
735,2353900,Ouedeguen,12.30883,-1.9123299999999999
736,2353901,Wadiel,10.08333,-2.83333
737,2353902,Wadara,10.26667,-3.5
738,2353903,Wamtenga,12.122489999999999,-1.39189
739,2353904,Ouabiyiri,12.22792,-1.31721
740,2353905,Wabaga,11.1,-3.83333
741,2353906,Wa,12.8619,-4.1874
742,2353907,Vue,12.85,-2.46667
743,2353908,Vrou,11.35,-1.7166700000000001
744,2353909,Vrassan,11.58333,-1.91667
745,2353910,Vransso,12.48333,-2.5
746,2353911,Voyo,11.1,-3.8666699999999996
747,2353912,Vouzo,11.68333,-3.7833300000000003
748,2353913,Vousnango,13.157720000000001,-1.6332799999999998
749,2353914,Vourou,11.4,-2.23333
750,2353915,Vouregane,11.13333,-3.1833299999999998
751,2353916,Vour,12.41667,-2.46667
752,2353917,Vouoro,13.2808,-4.1079
753,2353918,Voun Hou,12.4,-3.6166699999999996
754,2353919,Voun-Hou,12.71831,-3.51831
755,2353920,Vouini,9.93333,-2.86667
756,2353921,Voube,10.2,-2.86667
757,2353922,Votoni,11.38333,-3.43333
758,2353923,Vossora,10.4,-3.03333
759,2353924,Manefyam,12.47269,-1.7437200000000002
760,2353925,Foret Classee de la Volta Rouge,11.66667,-1.5
761,2353928,Foret Classee de Nakambe,12.114939999999999,-1.1154700000000002
762,2353929,Voko,11.63333,-1.26667
763,2353930,Vohon,11.7,-3.4
764,2353931,Voho,11.61667,-3.35
765,2353932,Voaga,12.64971,-1.41268
766,2353933,Virou,11.7,-2.96667
767,2353934,Virilona,10.2,-3.35
768,2353935,Vire Sogodin,13.413789999999999,-2.55059
769,2353936,Vipalogo,12.1156,-1.7619599999999997
770,2353937,Vindou Outorou,14.1473,-0.9744
771,2353938,Vindougoure,13.84061,0.036789999999999996
772,2353939,Vindifollo,13.350570000000001,0.69188
773,2353940,Vinde Tepadji,14.08881,-0.61912
774,2353941,Vinde Tchiliki,14.63955,-0.65087
775,2353942,Vinde Paka,14.354020000000002,-0.74953
776,2353943,Vinde Ndioumoy,14.073360000000001,-1.16129
777,2353944,Vinde Boki,14.2602,-1.9651
778,2353945,Vinde Boguel,14.183270000000002,-1.71268
779,2353946,Vinado,9.85,-3.13333
780,2353947,Vili Itaore,12.26667,-2.23333
781,2353948,Vilibogo,11.93333,-2.45
782,2353949,Vili,12.28333,-2.21667
783,2353950,Vile,11.9,-2.46667
784,2353951,Vila,12.28523,-1.8323099999999999
785,2353952,Vila,12.0,-2.11667
786,2353953,Vibourie,14.359020000000001,0.25527
787,2353954,Vi,11.76667,-3.13333
788,2353955,Verinkera,10.71667,-3.58333
789,2353956,Veradji,14.51731,-0.95491
790,2353957,Venogo,12.4,-0.7
791,2353958,Vendou Mbalou,14.4385,-1.81555
792,2353959,Vendou Gorou,14.17959,-1.20449
793,2353960,Vendou Dioundou,14.28099,-1.7753
794,2353962,Vendeniebe,13.7913,-0.23196999999999998
795,2353963,Vendekake,13.7761,-0.00257
796,2353964,Velia,12.03333,-2.2
797,2353965,Velia,12.0,-2.21667
798,2353966,Vele Velena,10.05,-3.1
799,2353967,Veldehidi,13.88047,-1.26929
800,2353968,Velde,14.194629999999998,-0.13128
801,2353969,Vegue,11.11667,-2.4
802,2353970,Vedaga,12.4,-0.36667
803,2353971,Vayaga,11.46667,-0.9
804,2353972,Vato,13.44869,-1.83644
805,2353973,Vato,11.31667,-2.21667
806,2353974,Vare,12.85,-3.7666699999999995
807,2353975,Vara,11.46667,-2.38333
808,2353976,Valiou,11.95,-2.5666700000000002
809,2353977,Vala,10.48333,-3.0
810,2353978,Vakourkoula,9.91667,-2.86667
811,2353979,Tyouti,13.48065,0.3839
812,2353980,Tyouridi,13.5596,0.34958
813,2353981,Tyoure,13.53517,0.06985
814,2353982,Tyoumbonga,13.28912,0.80925
815,2353983,Tyoula,12.68333,-0.8333299999999999
816,2353984,Tyou,12.66667,-2.03333
817,2353985,Tyor Angue,13.059610000000001,0.2976
818,2353986,Tyongoue,12.26667,-0.1
819,2353987,Tyongol,12.54465,1.8162599999999998
820,2353988,Tyongo,12.31667,-0.06667000000000001
821,2353989,Tyogongwande,12.5164,2.0367
822,2353990,Tyobou,12.608789999999999,0.08816
823,2353991,Tio,12.86428,-1.81902
824,2353992,Tyinbila,12.25,-0.28333
825,2353993,Tyibe,12.18333,-0.3
826,2353994,Tyetyegou,12.58041,1.4660600000000001
827,2353995,Tyetenga,12.38333,-0.71667
828,2353996,Tyersoum,12.41667,-0.6166699999999999
829,2353997,Tyereguen,12.81667,-0.21666999999999997
830,2353998,Tyerbilanga,12.53333,0.81667
831,2353999,Tyepoli,13.0861,-0.24874000000000002
832,2354000,Tyeonagol,12.6097,1.7228700000000001
833,2354001,Tyentaka,12.28333,0.36667
834,2354002,Tiendpalgo,12.65644,-1.7290599999999998
835,2354003,Tyenkilibi,12.59596,1.8857599999999999
836,2354004,Tyengourougue,12.28333,-0.016669999999999997
837,2354005,Tyena,13.63446,0.6170899999999999
838,2354006,Tyena,12.362630000000001,1.35869
839,2354007,Tiema,12.89095,-1.87158
840,2354008,Tyelsom,12.66667,-0.5
841,2354009,Tyelolmore,13.53256,0.44555
842,2354010,Tyelolmalla,13.781070000000001,0.20346
843,2354011,Tyekolfoulgou,14.040029999999998,-0.17103
844,2354012,Tyekol Dyoungoytol,13.78094,0.59717
845,2354013,Tyekolboure,13.76804,-0.045160000000000006
846,2354014,Tyekobo,13.778620000000002,-0.47531
847,2354015,Tyeko,13.22161,0.6884899999999999
848,2354016,Tyekanyebi,13.7053,0.54195
849,2354017,Tyegana,12.81667,-0.96667
850,2354018,Tyebo,12.53333,-2.3
851,2354019,Tyebanaga,12.03415,-1.70185
852,2354020,Tyebadi,12.13333,0.95
853,2354021,Tye,12.71667,-2.35
854,2354022,Tye,12.63333,-2.21667
855,2354023,Tyatyawabo,12.58496,1.00989
856,2354024,Tyarga,12.48333,0.18333
857,2354025,Tyaregou,12.8,-0.016669999999999997
858,2354026,Tyara,12.61667,0.9
859,2354027,Tyapafwanou,12.55,0.35
860,2354028,Tyantyarhabouli,12.64365,2.13232
861,2354029,Tyantyardi,12.427430000000001,2.19618
862,2354030,Tyanougou,12.53333,-0.06667000000000001
863,2354031,Tyangore,12.68333,-0.11667000000000001
864,2354032,Tyanga,13.5089,0.60544
865,2354033,Tyandanti,12.3911,1.8393
866,2354034,Tyanbouli,12.48152,1.8408
867,2354035,Tyanbaro,13.099219999999999,0.18467999999999998
868,2354036,Tyamou,12.41667,0.38333
869,2354037,Tyamdoubou,12.76667,-2.11667
870,2354038,Tyamboandou,12.18333,0.13333
871,2354039,Tyamana,13.328520000000001,-0.8548600000000001
872,2354040,Tyamana,13.31618,-0.86239
873,2354041,Tyalma,12.13333,-2.08333
874,2354042,Tyaga,12.159,1.9431200000000002
875,2354043,Tyado,12.1,0.06667000000000001
876,2354044,Tyabya,14.031270000000001,-0.42796000000000006
877,2354045,Tyaboandou,12.95,0.3
878,2354046,Tyabo,12.43333,0.71667
879,2354047,Touba,13.315760000000001,-2.57837
880,2354048,Twolonli,12.5244,2.17296
881,2354049,Twabangou,12.58949,2.01784
882,2354050,Toesse,13.0178,-2.08419
883,2354051,Twanou,13.180579999999999,0.9154700000000001
884,2354052,Tuili,11.98333,-1.38333
885,2354053,Foret Classee du Tui,11.76667,-3.58333
886,2354054,Tui,11.53333,-2.83333
887,2354055,Trefonziekaha,10.48333,-5.36667
888,2354056,Trakoulatenga,12.00755,-1.3314700000000002
889,2354057,Tozobrata,14.5511,0.09101000000000001
890,2354058,Toysse,12.95982,-1.08355
891,2354059,Toyorden,13.23037,-0.3587
892,2354060,Toyande,13.25735,-1.16414
893,2354061,Towourougou,13.47415,0.16095
894,2354062,Toworodo,12.61667,-0.33333
895,2354063,Towe,11.96667,-1.48333
896,2354064,Touya,13.6372,-2.63089
897,2354065,Touvor,10.83333,-2.91667
898,2354066,Toutyindili,12.51667,0.9
899,2354068,Toutou,14.151110000000001,-1.16448
900,2354069,Toutenga,12.93133,-1.11261
901,2354070,Toutako,12.23333,-0.26666999999999996
902,2354071,Tousyegou,12.38333,0.9
903,2354072,Toussougou,14.7585,-1.3201
904,2354073,Toussiemasso,10.9772,-4.84483
905,2354074,Touziana,10.83333,-4.61667
906,2354075,Toussouktenga,12.752889999999999,-1.6974900000000002
907,2354076,Touroum,13.12021,-0.80282
908,2354077,Tourouko,13.0673,-3.4803
909,2354078,Tourouba,13.26205,-2.54355
910,2354079,Tourou,13.1234,-3.3454
911,2354080,Touronata,14.252629999999998,-1.32904
912,2354081,Touro,14.469660000000001,-0.22946
913,2354082,Tourny,10.76667,-5.15
914,2354083,Tournoura,10.3,-4.9
915,2354084,Tourmana,10.0,-3.3666699999999996
916,2354085,Touri,12.45,-3.03333
917,2354086,Toure,12.95,-0.78333
918,2354087,Toure,12.95,-0.71667
919,2354088,Tourcoingbam,13.33828,-1.50463
920,2354089,Tourbou,12.41647,1.79788
921,2354090,Toura,13.676779999999999,-0.6123
922,2354091,Toura,11.88551,-4.47054
923,2354092,Toura,14.64988,-0.38677
924,2354093,Toupogo,12.85,-2.7
925,2354094,Toupintou,13.02973,0.65847
926,2354095,Toupare,10.1,-2.8
927,2354096,Touokapika,12.06667,0.78333
928,2354097,Tountou,12.39334,1.45658
929,2354098,Tounte Polaka,14.62212,-0.63926
930,2354099,Tounte Mboa,14.62449,-0.73811
931,2354100,Tounte,14.65189,-0.8978
932,2354101,Tounte,14.62069,-0.44547
933,2354102,Tountana,9.93333,-3.56667
934,2354103,Tounouma,11.17857,-4.28156
935,2354104,Tounougou,14.194679999999998,0.28426999999999997
936,2354105,Tounou,12.63333,-2.6
937,2354106,Tounou,11.98333,-3.35
938,2354107,Toungouri,9.83333,-3.0
939,2354108,Toungouana,11.3,-3.95
940,2354109,Toungou,11.03333,-0.88333
941,2354110,Toungbagama,11.43785,-4.35315
942,2354111,Toungare,13.2714,-3.1014
943,2354112,Tounedi,12.76667,0.08333
944,2354113,Toundoura,10.2,-4.78333
945,2354114,Toundou,12.02774,-1.44872
946,2354115,Touna,12.03333,0.6333300000000001
947,2354116,Toun,11.9,-3.65
948,2354117,Toumpo,9.93333,-3.2
949,2354118,Toumousseni,10.63333,-4.9
950,2354119,Toumouni,13.245439999999999,-1.9630299999999998
951,2354120,Toumouali,12.28464,1.58253
952,2354121,Toumbila,13.0033,-3.3393
953,2354122,Toumbabri,13.27175,0.86087
954,2354123,Toumba,12.64129,-1.36417
955,2354124,Toumar,9.76667,-2.9333299999999998
956,2354125,Toumani,12.83333,-3.43333
957,2354126,Touma,13.215160000000001,-1.99888
958,2354127,Toulpouo,11.13333,-2.86667
959,2354128,Toulougou,12.2,-0.31667
960,2354129,Toulougo,12.6,-0.71667
961,2354130,Toulonga,12.303939999999999,1.61919
962,2354131,Toulogo,12.6,-0.66667
963,2354132,Touliguere,12.94674,-1.30608
964,2354133,Toulia,13.10481,-2.17497
965,2354134,Toulfwanou,13.05798,0.20713
966,2354136,Toulfe,13.8826,-1.9551
967,2354137,Toula,12.6136,-4.3179
968,2354138,Toula,11.65,-1.01667
969,2354139,Toukwedo,12.38333,0.06667000000000001
970,2354140,Toukouro,12.11239,-4.34069
971,2354141,Toukouli,13.68302,-2.07487
972,2354142,Toukoudja,11.01667,0.5
973,2354143,Toukoro,11.42211,-4.2504800000000005
974,2354144,Toukoro,11.18713,-4.54822
975,2354145,Toukoro,10.4,-3.85
976,2354146,Touko,13.1159,-2.08508
977,2354147,Toukin,12.39678,-1.50234
978,2354148,Touka Ouropila,14.198789999999999,-0.24908000000000002
979,2354149,Touka Ouronala,14.189329999999998,-0.18952
980,2354150,Touka Korno,14.183810000000001,-0.21372
981,2354151,Touka Dionga,14.18082,-0.18363
982,2354152,Touka Bayel,14.187370000000001,-0.23875
983,2354153,Touka,13.269429999999998,-1.49898
984,2354154,Touire,12.21667,-0.5
985,2354155,Touhousma,12.9038,-1.42639
986,2354156,Touhaho,11.66667,-3.5166699999999995
987,2354157,Tougui,12.81667,-0.5
988,2354158,Tougui,12.76667,-0.51667
989,2354159,Tougouya,13.455060000000001,-2.06488
990,2354160,Tougouya,13.31412,-2.18074
991,2354161,Tougourousambo,12.03333,0.48333000000000004
992,2354162,Tougouri,13.31639,-0.5225
993,2354163,Tougouri,13.127310000000001,-1.21254
994,2354164,Tougoulema,11.98333,-1.58333
995,2354165,Tougoudougou,12.56667,-0.18333
996,2354166,Tougoubile,14.174170000000002,-1.0957
997,2354167,Tougou,13.68036,-2.25088
998,2354168,Tougou,12.56667,-2.45
999,2354169,Tougomene,13.55091,-2.71315
1000,2354170,Tougue,13.52043,-2.67729
1001,2354171,Tougo,13.45447,-1.7975700000000001
1002,2354172,Tougo,13.201360000000001,-2.12037
1003,2354173,Touguiri,12.0614,-1.9963099999999998
1004,2354174,Tougdou,13.46181,-0.05223
1005,2354175,Tougatenga,12.56667,-0.85
1006,2354176,Tougan,13.0725,-3.0694
1007,2354177,Toueyoko,11.76667,-1.0
1008,2354178,Touekoundi,13.485710000000001,-1.09646
1009,2354179,Touebaka,12.05,-2.13333
1010,2354180,Toudou,11.86667,-1.31667
1011,2354181,Toubouri,12.98333,0.96667
1012,2354182,Toubouri,12.42212,1.6412200000000001
1013,2354183,Touboulondo,13.26235,-1.5679299999999998
1014,2354184,Toubouandi,12.32768,1.58273
1015,2354185,Toubouandi,12.27435,1.90747
1016,2354186,Toubiango,13.06588,-2.42887
1017,2354187,Toubani,12.95,-3.26667
1018,2354188,Touba,13.1125,-4.321000000000001
1019,2354189,Touaga,12.17,1.7971700000000002
1020,2354190,Touaeguen,13.08683,-0.9040299999999999
1021,2354191,Touabre,13.220260000000001,-0.24072
1022,2354192,Tou,13.923720000000001,-2.76899
1023,2354193,Toton,12.03333,-3.45
1024,2354194,Totenga,13.09709,-1.66691
1025,2354195,Toson,12.9,-2.9333299999999998
1026,2354196,Tosogo,13.026530000000001,-0.13760999999999998
1027,2354197,Torouodo,12.56667,-0.21666999999999997
1028,2354198,Toroue,13.767999999999999,-2.37193
1029,2354199,Torosso,11.147089999999999,-4.5776
1030,2354200,Torokoto,13.3465,-3.8012
1031,2354201,Torokoro,10.03333,-4.4
1032,2354202,Torohiri,10.15,-3.55
1033,2354203,Torodo,12.2,-0.48333000000000004
1034,2354204,Torodi,13.9967,-0.0277
1035,2354205,Foret Classee de Toroba,12.48333,-3.26667
1036,2354206,Toroba,12.46667,-3.23333
1037,2354207,Toro,12.35,-0.76667
1038,2354208,Torkora,10.23333,-3.55
1039,2354209,Toguen,12.80884,-1.08912
1040,2354210,Tore,11.21667,-1.18333
1041,2354211,Tordo,12.11667,-0.41667
1042,2354212,Torandougou,9.86667,-4.4
1043,2354213,Tora,13.28819,-1.3870200000000001
1044,2354214,Tora,12.58333,-3.4
1045,2354215,Tora,10.56667,-3.4833300000000005
1046,2354216,Tora,10.45,-3.1833299999999998
1047,2354217,Topo,10.53333,-3.4666699999999997
1048,2354218,Topi,9.85,-2.85
1049,2354219,Topera,10.36667,-3.03333
1050,2354220,Topana,10.5,-3.6333300000000004
1051,2354221,Tonvo,11.55016,-4.4473400000000005
1052,2354222,Tontonibouri,12.05908,1.8497
1053,2354223,Tonton,12.58333,-2.65
1054,2354224,Tontoloumboura,10.16667,-3.33333
1055,2354225,Tonsere,12.66667,-3.7333300000000005
1056,2354226,Tonpomena,9.88333,-3.3
1057,2354227,Tonpena,10.35,-3.5
1058,2354228,Tonore,10.45,-3.03333
1059,2354229,Tonon,11.55,-2.41667
1060,2354230,Tonogosso,11.14282,-4.16066
1061,2354231,Tondi Soulfi,14.5859,0.0391
1062,2354232,Tonkoroni,12.66667,-3.83333
1063,2354233,Tonkar,10.4,-3.16667
1064,2354234,Tonior,9.8,-2.9333299999999998
1065,2354235,Toni,12.65099,-3.9882699999999995
1066,2354236,Tonguen,13.451939999999999,-1.93372
1067,2354237,Tonguel,13.96659,0.16064
1068,2354238,Tonguel,13.79011,0.45671000000000006
1069,2354239,Tongue,13.97794,-0.45121000000000006
1070,2354240,Tongourou,13.0028,-3.3454
1071,2354241,Tongou,13.272879999999999,0.3863
1072,2354242,Tongomayel,14.066370000000001,-1.48171
1073,2354243,Tongogoden,12.63829,2.01736
1074,2354244,Tongchogo,13.286929999999998,-0.46657
1075,2354245,Tongawabgoude,12.55,-0.25
1076,2354246,Tonga,14.0407,-0.45825
1077,2354247,Tonga,10.58333,-4.05
1078,2354248,Tonei,12.43333,-3.0
1079,2354249,Tone,11.374830000000001,-2.78268
1080,2354250,Tondo Logo,14.603079999999999,0.0745
1081,2354251,Tondi Gariol,14.53969,-1.76695
1082,2354252,Tonbougoudou,12.88333,-3.85
1083,2354253,Tonbokoro,10.11667,-4.58333
1084,2354254,Tonbi,10.3,-3.6333300000000004
1085,2354255,Tomba,13.412560000000001,-2.49296
1086,2354256,Tona,12.06667,-3.5
1087,2354257,Ton,11.56667,-2.7
1088,2354258,Tomwaka,13.31705,-1.75442
1089,2354259,Tomena,10.76667,-3.5166699999999995
1090,2354260,Tombo,14.79001,0.0643
1091,2354261,Tambarga,11.79583,1.74167
1092,2354262,Tomannga,13.230720000000002,0.16095
1093,2354263,Tomabissi,11.0,-0.8333299999999999
1094,2354264,Toma,13.1413,-3.4523
1095,2354265,Toma,12.75844,-2.89879
1096,2354266,Touma,12.6415,-4.4015
1097,2354267,Tolongo,12.75,-0.4
1098,2354268,Tolombou,13.508610000000001,0.45798
1099,2354269,Tologo Yiri,12.341289999999999,-1.9744400000000002
1100,2354270,Tolo,13.7418,-1.9602099999999998
1101,2354271,Tolla,11.8,-0.6166699999999999
1102,2354272,Tolkaboua,10.18333,-2.95
1103,2354273,Tolingue,12.61667,-0.75
1104,2354274,Tolepsi,13.13234,0.2173
1105,2354275,Tolepere,10.86667,-2.98333
1106,2354276,Tole,11.058110000000001,-4.1653
1107,2354277,Tokyedogo,13.849470000000002,-0.99344
1108,2354278,Tokpoura,10.3,-2.96667
1109,2354279,Tokoumi,12.95,-0.48333000000000004
1110,2354280,Tokora,10.38333,-3.55
1111,2354281,Tokera,10.23333,-3.33333
1112,2354282,Tokera,10.15,-3.16667
1113,2354283,Tokal,10.68333,-3.08333
1114,2354284,Toi Yako,11.76667,-0.9333299999999999
1115,2354285,Toidyougou,13.44275,-1.0261799999999999
1116,2354286,Tohisenko,12.58333,-2.71667
1117,2354287,Tohevera,10.43333,-3.2
1118,2354288,Tohevera,10.13333,-3.3666699999999996
1119,2354289,Tohera,10.18333,-3.08333
1120,2354290,Toguina,13.51322,-0.24416999999999997
1121,2354291,Togourka,10.93333,0.51667
1122,2354292,Togounde,14.148470000000001,-0.8376399999999999
1123,2354293,Togotenga,12.15,-0.25
1124,2354294,Togosse,11.56667,-1.16667
1125,2354295,Togo Olel,14.2329,-0.7055
1126,2354296,Togombangre,12.53682,-1.1682299999999999
1127,2354297,Togoma,13.12319,-1.5303200000000001
1128,2354298,Togen,12.38333,-0.9166700000000001
1129,2354299,Toeysen,12.8,-0.58333
1130,2354300,Toessen,12.75446,-1.27254
1131,2354301,Toeyoko,12.25,-0.9166700000000001
1132,2354302,Toessin,13.64155,-2.4828900000000003
1133,2354303,Toessen,12.28333,-0.88333
1134,2354304,Toesse,12.76667,-2.38333
1135,2354305,Toesse,13.55604,-1.6534900000000001
1136,2354306,Toesse,13.55185,-1.50005
1137,2354307,Toesse,13.37026,-1.2495100000000001
1138,2354308,Toesse,13.09985,-1.18654
1139,2354309,Toesse,13.00206,-1.0769600000000001
1140,2354310,Toesse,12.93333,-2.3166700000000002
1141,2354311,Toesse,12.91667,-2.3
1142,2354312,Toesse,12.73333,-2.38333
1143,2354313,Toesse,11.83,-1.26639
1144,2354314,Toesse,11.81667,-0.31667
1145,2354315,Toere,13.071,-3.3564
1146,2354316,Toare,13.05692,-2.7570799999999998
1147,2354317,Toemiga,11.96667,-1.31667
1148,2354318,Toeguen,13.388379999999998,-1.8790099999999998
1149,2354319,Toeghin,12.8159,-1.72763
1150,2354320,Tanga,12.49532,-1.7441400000000002
1151,2354321,Toeghin,12.07588,-1.6904099999999997
1152,2354322,Toedin,11.7,-1.15
1153,2354323,Toebanaga,11.85,-1.48333
1154,2354324,Toe,11.46667,-2.3
1155,2354325,Todie,10.85,-5.08333
1156,2354326,Todiam,13.64662,-2.1250299999999998
1157,2354327,Tobouroura,10.05,-3.35
1158,2354328,Toboule,14.478710000000001,-1.43528
1159,2354329,Tobo,10.21667,-2.85
1160,2354330,Tobil,10.13333,-2.8166700000000002
1161,2354331,Tobielpo,10.1,-3.3666699999999996
1162,2354332,Tobidioga,13.9241,-0.12190999999999999
1163,2354333,Tobanbou,13.483479999999998,-0.13702999999999999
1164,2354334,Toba,12.76667,-2.76667
1165,2354335,Toanta,9.95,-2.95
1166,2354336,Toanga,12.0071,-1.2408
1167,2354337,Toanga,11.85,-1.5
1168,2354338,Toaetenga,12.96667,-0.9333299999999999
1169,2354339,To,12.75,-2.98333
1170,2354340,To,11.44379,-2.22548
1171,2354341,Tiziliziogo,12.77166,-1.21611
1172,2354342,Tiyo,13.27007,-1.2857100000000001
1173,2354343,Tiyelle,11.95,-2.3166700000000002
1174,2354344,Tivera,10.01667,-3.7666699999999995
1175,2354345,Titouti,12.65282,1.29576
1176,2354346,Titintabe,11.73333,-1.2833299999999999
1177,2354347,Titim,12.0,-2.05
1178,2354348,Titara,9.9,-3.26667
1179,2354349,Titao,13.766670000000001,-2.0666700000000002
1180,2354350,Titangen,12.85,-2.15
1181,2354351,Tita,11.920919999999999,-2.51536
1182,2354352,Titabe,13.772739999999999,0.43235
1183,2354353,Tita,13.426620000000002,0.3935
1184,2354354,Tissime,12.98333,-0.41667
1185,2354355,Tissi,12.85,-3.7333300000000005
1186,2354356,Tissi,12.75,-3.26667
1187,2354357,Tisseme,13.01657,-0.42765
1188,2354358,Foret Classee de Tisse,12.13333,-2.86667
1189,2354359,Tisse,12.09803,-2.97621
1190,2354360,Tirpo,10.35,-2.98333
1191,2354361,Kiro-Hari,14.4257,-0.047369999999999995
1192,2354362,Tiroari,14.43034,0.00903
1193,2354363,Tiripera,9.91667,-3.21667
1194,2354364,Tiri,12.88333,-3.2
1195,2354365,Tirenkile,12.75033,-1.5423200000000001
1196,2354366,Tirbou,13.404470000000002,-1.8086400000000002
1197,2354367,Tira,13.131120000000001,-3.93531
1198,2354368,Tiparga,12.15,0.38333
1199,2354369,Tipakouti,12.97673,-1.56936
1200,2354370,Tioyo,10.64967,-3.22745
1201,2354371,Tioumkoum,13.92196,-0.11312
1202,2354372,Tioulo,10.58333,-3.11667
1203,2354373,Tioulankoulo,10.7,-5.2333300000000005
1204,2354374,Tiouhouniwane,12.85,-4.183330000000001
1205,2354375,Tiouega,13.08382,-1.1185100000000001
1206,2354376,Tiou,13.205029999999999,-0.8547799999999999
1207,2354377,Tiossera,10.170589999999999,-3.51471
1208,2354378,Tiossanao,10.41667,-3.4833300000000005
1209,2354379,Tioro,11.6,-3.65
1210,2354380,Tiopolo,9.98333,-3.5166699999999995
1211,2354381,Tiopolo,9.88333,-3.1
1212,2354382,Tiopergue,10.46667,-5.28333
1213,2354383,Tiopanao,10.71667,-3.15
1214,2354385,Tiopanao,10.46667,-3.16667
1215,2354386,Tiopanao,10.21667,-3.3
1216,2354387,Tiopanao,10.16667,-3.3833300000000004
1217,2354388,Tionzebougou,11.09567,-5.07784
1218,2354389,Tiontiomana,10.51667,-4.7666699999999995
1219,2354390,Tionouna,10.51667,-4.816669999999999
1220,2354391,Tionou,11.16667,-3.8
1221,2354392,Tionkui,12.51667,-3.4666699999999997
1222,2354393,Tiongo,12.23333,-0.06667000000000001
1223,2354394,Tiongo,10.91667,-5.45
1224,2354395,Tionboni,11.61667,-3.5333300000000003
1225,2354396,Tionbo,11.71667,-3.6166699999999996
1226,2354397,Tiona,11.63333,-2.85
1227,2354398,Tiomolo,10.2,-3.05
1228,2354399,Tioli,14.13291,-2.10917
1229,2354400,Tiokui,12.11667,-3.75
1230,2354401,Tiokpolotiona,10.13333,-3.2833300000000003
1231,2354402,Tioko,11.78333,-1.35
1232,2354403,Tioke,13.907820000000001,-0.8645299999999999
1233,2354404,Foret Classee de Tiogo,12.26667,-2.78333
1234,2354405,Tiogo,12.33333,-2.38333
1235,2354406,Tiofinom,14.02486,-1.9647400000000002
1236,2354407,Tiodie,11.85,-2.6
1237,2354408,Tiochin,11.5,-1.9666700000000001
1238,2354409,Tiobouro,9.95,-3.4666699999999997
1239,2354410,Tiobiala,9.9,-3.23333
1240,2354411,Tio,12.4727,-1.84286
1241,2354412,Tio,12.2,-2.65
1242,2354413,Tintoura,10.06667,-3.33333
1243,2354414,Tintilou,12.21235,-1.7844099999999998
1244,2354415,Tintilo,10.96667,-3.56667
1245,2354416,Tintenga,12.1168,-1.43124
1246,2354417,Ti-n-Taroubam,14.692060000000001,0.15020999999999998
1247,2354418,Ti-n-Taradat,14.647470000000002,0.16332
1248,2354419,Tinsouka,12.345239999999999,-1.67209
1249,2354420,Tinsobinbtinga,11.83333,-1.33333
1250,2354421,Tinsobdogo,12.26667,-0.6333300000000001
1251,2354422,Ti-n-Samane,14.73942,0.12572
1252,2354423,Tinpo,10.31667,-3.0
1253,2354424,Tinpereba,10.16667,-4.9
1254,2354425,Tinomowari,14.52007,-0.70126
1255,2354426,Tinobole,10.75,-5.4833300000000005
1256,2354427,Tino,10.75,-5.433330000000001
1257,2354428,Tinkpoura,10.25,-3.31667
1258,2354429,Tinko,10.58333,-3.13333
1259,2354430,Tinkiro,10.11667,-3.41667
1260,2354431,Tinkiero,10.16667,-3.23333
1261,2354432,Tinkar,10.58333,-3.03333
1262,2354433,Tinkakpera,10.25,-3.4666699999999997
1263,2354434,Tinie Souka,14.19755,-1.05418
1264,2354435,Tinie,14.333020000000001,-1.46858
1265,2354436,Tinibale,11.95,-0.1
1266,2354437,Tinhira,9.96667,-3.16667
1267,2354438,Lac de Tingrela,10.63333,-4.85
1268,2354439,Tingou,13.551770000000001,0.5083300000000001
1269,2354440,Tingue,14.4186,-0.7266
1270,2354441,Tengandogo,12.050989999999999,-1.30247
1271,2354442,Kienfangue,12.20159,-1.55552
1272,2354443,Tineguene,13.96582,-2.5235
1273,2354444,Tine,11.1,-2.2
1274,2354445,Tindonoui,13.40039,-0.15277000000000002
1275,2354446,Ti-n-Dioulaf,14.84177,-0.2668
1276,2354447,Tindilla,12.81667,-2.25
1277,2354448,Tindiera,10.36667,-3.1
1278,2354449,Tindia,10.58333,-3.0
1279,2354450,Tindangou,11.18111,0.83
1280,2354451,Tindahane,12.48333,-0.03333
1281,2354452,Tindahane,12.43333,-0.06667000000000001
1282,2354453,Tinboye,10.83333,-3.3666699999999996
1283,2354454,Tinboura,10.08333,-3.25
1284,2354455,Tinboura,9.96667,-3.3
1285,2354456,Tinboukoura,10.11667,-3.33333
1286,2354457,Timboue,11.78333,-1.3
1287,2354458,Ti-n-Bolou,14.709810000000001,-0.56517
1288,2354459,Tinboko,10.3,-3.81667
1289,2354460,Tinbissinano,10.75,-3.25
1290,2354461,Tinbiela,10.08333,-3.33333
1291,2354462,Tinbeboutiona,10.55,-3.1833299999999998
1292,2354463,Tinba,10.65,-5.25
1293,2354464,Tinatanboua,12.13333,0.46667
1294,2354465,Ti-n-Aray,14.6817,-0.5244
1295,2354466,Ti-n-Ala,14.75344,-1.15231
1296,2354467,Ti-n-Akof,14.967889999999999,-0.15175
1297,2354468,Tin Akof,14.96667,0.16667
1298,2354469,Ti-n-Aidia,14.86645,-0.29873
1299,2354470,Ti-n-Agadel,14.486360000000001,-0.03841
1300,2354471,Tena,11.795689999999999,-5.2149
1301,2354472,Tina,11.63333,-2.05
1302,2354473,Tin,11.08906,-4.95565
1303,2354474,Timintira,10.13333,-3.2833300000000003
1304,2354475,Timboulel,14.431189999999999,-0.31351999999999997
1305,2354476,Timbanga,12.78333,0.55
1306,2354477,Timasaso,14.8188,-0.06878
1307,2354478,Tima,13.680129999999998,-0.029060000000000002
1308,2354479,Tilli,13.48605,-2.3504
1309,2354480,Tiligui,13.06285,-2.07931
1310,2354481,Tilibaka,12.7,-0.9833299999999999
1311,2354482,Tiliba,13.363620000000001,-2.2335700000000003
1312,2354483,Tilga,13.245679999999998,-0.7096600000000001
1313,2354484,Tilga,13.09689,-0.59825
1314,2354485,Tilere,14.0567,-1.65802
1315,2354486,Tilanpira,10.01667,-3.33333
1316,2354487,Tilanaoule,14.06294,-0.86825
1317,2354488,Tila,14.08211,-0.25993
1318,2354489,Tila,14.15666,-1.2677399999999999
1319,2354490,Tikoumbable,13.688870000000001,-0.30262
1320,2354491,Tiketiona,10.45,-3.5
1321,2354492,Tikare,13.29139,-1.7261099999999998
1322,2354493,Tiguinzougue,11.88333,-0.2
1323,2354494,Tiguendelga,12.36667,-0.56667
1324,2354495,Tigsarbo,13.0107,-1.51681
1325,2354496,Tigre,11.9,-0.9166700000000001
1326,2354497,Tigou,13.9827,-0.27415
1327,2354498,Tigaoren,12.9,-0.33333
1328,2354499,Tiguindalgue,12.2663,-1.60131
1329,2354500,Tigan,12.30943,-3.15
1330,2354501,Tigaintiele,11.68333,-1.66667
1331,2354502,Tiga,11.887939999999999,-4.67849
1332,2354503,Tifoukourou,14.446660000000001,-0.7098
1333,2354504,Tifou,13.27299,-1.30524
1334,2354505,Tiforodo,9.73333,-3.05
1335,2354506,Tiessourou,11.33333,-2.33333
1336,2354507,Tieribe,12.63333,-3.4
1337,2354508,Tieri,10.38333,-5.08333
1338,2354509,Tieri,13.0,-0.21666999999999997
1339,2354510,Tierga,13.77723,-2.3198
1340,2354511,Tierekou,12.11667,-3.01667
1341,2354512,Tierako,11.48253,-4.1343
1342,2354513,Tieradeni,10.28333,-4.7
1343,2354514,Tienzan,12.25,-3.23333
1344,2354515,Tiensere,12.01667,-3.31667
1345,2354516,Tienpagora,10.41667,-4.8
1346,2354517,Tienkouagalaga,13.00958,-2.1720900000000003
1347,2354518,Tiengouera,11.85032,-4.8558900000000005
1348,2354519,Tienena,10.91667,-5.2666699999999995
1349,2354520,Tienemene,13.496570000000002,-2.12636
1350,2354521,Tienel Tepadi,14.126610000000001,-2.04941
1351,2354522,Tienekui,13.0324,-4.1857
1352,2354523,Tiena,12.21667,-3.2
1353,2354524,Tien,11.037289999999999,-4.5427800000000005
1354,2354525,Tiemounou,11.43437,-5.12098
1355,2354526,Tiemena,12.70315,-3.99631
1356,2354527,Tiemanje,10.98333,0.51667
1357,2354528,Tiemana,9.96667,-3.4
1358,2354529,Tiema,12.73333,-2.78333
1359,2354530,Tielka,10.66667,-3.01667
1360,2354531,Tiele Denedie,14.14132,0.18362
1361,2354532,Tiekuy,12.3,-3.25
1362,2354533,Tiekoura,11.01667,-2.1833299999999998
1363,2354534,Tiekouo,12.16667,-3.05
1364,2354535,Tiekouna,10.63333,-4.8
1365,2354536,Tieko Noda,14.481010000000001,-0.88871
1366,2354537,Tiekon,11.18333,-2.88333
1367,2354538,Tyekol Oulou,14.1284,0.057120000000000004
1368,2354539,Tyekol Boka,14.0394,0.2116
1369,2354540,Tollel-Kaya,14.54432,0.00242
1370,2354541,Tyekol Ndiaki,14.030079999999998,0.20508
1371,2354542,Tyekel Koutol,14.28525,0.16704000000000002
1372,2354543,Tiekelinsso,10.45,-5.2
1373,2354544,Tiekel,10.16667,-2.83333
1374,2354545,Tieke,11.923,-3.98204
1375,2354546,Tiekanene,14.39439,-1.02535
1376,2354547,Tiekaliedji,13.904079999999999,-0.50802
1377,2354548,Tiefora,10.6245,-4.54019
1378,2354549,Tiebon,9.93333,-3.8
1379,2354550,Tiogo,12.1761,-2.68958
1380,2354551,Tiebletenga,11.55,-0.06667000000000001
1381,2354552,Tiebele,11.09722,-0.9655600000000001
1382,2354553,Tiebata,9.85,-4.2666699999999995
1383,2354554,Tiebalo,10.76667,-3.85
1384,2354555,Tidyala,13.8295,-1.47375
1385,2354556,Tidmaren,14.46819,-0.31767
1386,2354557,Tidimtoa,13.143289999999999,-0.36239
1387,2354558,Tibtenga,13.287820000000002,-1.3982
1388,2354559,Tibtenga,13.193829999999998,-1.23115
1389,2354560,Tibtenga,13.08343,-0.81137
1390,2354561,Tibtanga,13.50792,-2.36983
1391,2354562,Tibsagabo,13.161220000000002,-0.5329
1392,2354563,Tibou,12.982460000000001,-1.95795
1393,2354564,Tibou,12.88333,-2.0666700000000002
1394,2354565,Tibo,14.099229999999999,-2.16657
1395,2354566,Tibitenga,13.785810000000001,-2.3466099999999996
1396,2354567,Tibiri,13.907929999999999,-1.20662
1397,2354568,Tibilindi,13.800679999999998,-0.08085
1398,2354569,Tibili,12.96667,-2.13333
1399,2354570,Tibili,12.48333,-0.16667
1400,2354571,Tibila,13.09551,-2.7067099999999997
1401,2354572,Tibikoro,13.5657,-2.66361
1402,2354573,Tibieldouo,10.11667,-3.1833299999999998
1403,2354574,Tibi,13.153210000000001,-0.88635
1404,2354575,Tibga,12.16917,0.0575
1405,2354576,Tiben,13.1673,-1.3815899999999999
1406,2354577,Tiben,12.86667,-0.9166700000000001
1407,2354578,Tiben,12.86667,-0.73333
1408,2354579,Tibin,12.61919,-1.24191
1409,2354581,Tiben,12.35,-0.7
1410,2354582,Tiben,12.31667,-0.68333
1411,2354583,Tibe,13.016639999999999,-2.35543
1412,2354584,Tibe,12.83333,-0.86667
1413,2354585,Tibe,12.71667,-0.56667
1414,2354586,Tibe,12.18174,-1.42975
1415,2354587,Tibe,11.76667,-1.35
1416,2354588,Tibari,12.43333,0.9166700000000001
1417,2354589,Tibari,12.15,0.4
1418,2354590,Tiba,13.411129999999998,-1.96681
1419,2354591,Tiba,12.70248,-1.2977299999999998
1420,2354592,Tiawama,11.63333,-3.7
1421,2354593,Tiargou,12.75,0.66667
1422,2354594,Tiare,11.76667,-2.21667
1423,2354595,Tiare,11.47333,-1.47417
1424,2354596,Tiarakui,12.9,-4.03333
1425,2354597,Tiara,11.03333,-2.15
1426,2354598,Tiara,11.99915,-4.71974
1427,2354599,Tiara,11.09935,-4.59508
1428,2354600,Tiao,10.36667,-5.46667
1429,2354601,Tiao,13.2257,-3.2385
1430,2354602,Tianra,13.0917,-3.1699
1431,2354603,Tianpara,9.83333,-3.0666700000000002
1432,2354604,Tiano,11.38333,-2.21667
1433,2354605,Tian Niale,14.12866,-1.39509
1434,2354606,Tiankui,12.63333,-3.45
1435,2354607,Tiankoura,10.76634,-3.25588
1436,2354608,Tiankoro,12.012880000000001,-4.55506
1437,2354609,Tiankolavoho,11.61667,-3.83333
1438,2354610,Tiamien,11.81667,-2.25
1439,2354611,Tialong Niapang,14.2114,-0.60082
1440,2354612,Tchalol Olol,14.57453,-0.58103
1441,2354613,Tialgo,12.23333,-2.58333
1442,2354614,Tialba,12.1157,0.06534
1443,2354615,Tiakoro,10.63333,-3.1833299999999998
1444,2354616,Tiakora,10.7,-3.2
1445,2354617,Tiako,11.83333,-1.86667
1446,2354618,Tiakane,11.83333,-0.08333
1447,2354619,Tiakane,11.18333,-1.2
1448,2354620,Tiahouyou,12.0,-3.93333
1449,2354621,Tiagao,11.61667,-1.8
1450,2354622,Tiafolboy,14.314210000000001,-0.55519
1451,2354623,Tiafandouo,10.01667,-3.16667
1452,2354624,Tantiabongou,13.09689,0.73439
1453,2354625,Tiabga,12.03333,-0.03333
1454,2354626,Tiabdou,12.78333,-0.11667000000000001
1455,2354627,Tia,11.78333,-3.85
1456,2354628,Ti,12.51765,-1.8126
1457,2354629,Ti,12.03333,-4.5166699999999995
1458,2354630,Ti,11.05,-2.45
1459,2354631,Tiou,11.95523,-2.19869
1460,2354632,Thioumtonga,13.98649,-0.06579
1461,2354633,Tiou,13.806320000000001,-2.6637299999999997
1462,2354634,Thion,13.06475,-0.31495
1463,2354635,Thieo,12.86667,-2.3
1464,2354636,Toezouri,12.16613,-1.6652900000000002
1465,2354637,Teyoko,12.23108,-1.41065
1466,2354638,Teyoko,11.7,-1.05
1467,2354639,Teyga,12.31667,-2.4333299999999998
1468,2354640,Teyango,13.428460000000001,0.7315699999999999
1469,2354641,Tete,11.30258,-4.6314
1470,2354642,Tesyame,12.2,-0.85
1471,2354643,Testenga,12.3,-0.45
1472,2354644,Tessepe,10.48333,-2.98333
1473,2354645,Terpo,10.08333,-3.7
1474,2354646,Terou,14.5087,-1.9105
1475,2354648,Teri-Rimaibe,12.94539,-3.21864
1476,2354649,Bamguel Terelbi,14.568579999999999,-0.87936
1477,2354650,Tereko,12.3758,-4.2742
1478,2354651,Teregbe,10.25,-4.16667
1479,2354652,Foret Classee du Tere,11.68926,-4.4088400000000005
1480,2354653,Tere,11.805,-4.26215
1481,2354654,Tere,13.34286,-0.82099
1482,2354655,Terbiel,13.774970000000001,-0.03163
1483,2354656,Bamguel Terbi,14.219270000000002,0.20592
1484,2354657,Tepare,14.26455,-1.7005400000000002
1485,2354658,Tepaldi,14.3902,-0.6004
1486,2354659,Teoule,11.73773,-4.7889
1487,2354660,Taonsogo,13.50995,-1.9152099999999999
1488,2354661,Teonsogo,13.443660000000001,-2.56874
1489,2354662,Teossalogo,12.31667,-0.86667
1490,2354663,Teogo,12.95,-0.45
1491,2354664,Tentogo,12.16667,-0.65
1492,2354665,Tanguiga,12.66175,-1.44973
1493,2354666,Tensouka,13.266229999999998,-1.51181
1494,2354667,Tensobtenga,12.0,-0.26666999999999996
1495,2354668,Tensobongo,12.45635,-1.9403299999999999
1496,2354669,Tensobongo,12.435830000000001,-1.9042700000000001
1497,2354670,Tensobintenga,12.28333,-0.85
1498,2354671,Tensobadogo,13.23265,-1.50296
1499,2354672,Tenou,12.73333,-3.9666699999999997
1500,2354673,Tenoghin,12.05968,-1.4866700000000002
1501,2354674,Tenkotou,13.15431,0.25727
1502,2354675,Tenkodogo,11.78,-0.36972
1503,2354676,Teninbo,10.6,-3.45
1504,2354677,Teni,12.94327,-4.08745
1505,2354678,Tengsobodogo,13.351020000000002,-1.81555
1506,2354679,Tengsobiri,12.38333,-2.13333
1507,2354680,Tengrela,10.66667,-4.816669999999999
1508,2354681,Tengoro,13.52644,-1.19364
1509,2354682,Tengo,13.58796,-0.28392
1510,2354683,Tengo,12.76578,-1.02429
1511,2354684,Tengassopodogo,12.95,-0.75
1512,2354685,Tengangtanga,13.06424,-1.874
1513,2354686,Tingandogo,12.2579,-1.53396
1514,2354687,Tenel,14.011870000000002,-2.7766900000000003
1515,2354688,Toeni,13.379929999999998,-3.2008
1516,2354689,Tenasso,11.319980000000001,-4.93689
1517,2354690,Tenasouka,14.14347,-0.8630899999999999
1518,2354691,Tena Kourou,10.75,-5.41667
1519,2354692,Tenado,12.19276,-2.59737
1520,2354693,Tena,12.25,-3.4666699999999997
1521,2354694,Tena,10.75,-5.41667
1522,2354695,Tamporin,12.65109,-1.47554
1523,2354696,Temnaore,12.59078,-1.93375
1524,2354697,Temnore,12.36667,-0.53333
1525,2354698,Temnaore,13.428529999999999,-1.7330900000000002
1526,2354699,Temissi,11.65,-1.16667
1527,2354700,Temetemesso,11.76282,-5.208819999999999
1528,2354701,Temeoura,10.13333,-3.16667
1529,2354702,Tema,14.133510000000001,-0.8037
1530,2354703,Tema,13.081,-1.7896900000000002
1531,2354704,Tema,13.04782,-1.7734599999999998
1532,2354705,Tem,12.26667,0.33333
1533,2354706,Tem,14.47688,-1.50371
1534,2354707,Telowal,13.196679999999999,0.19780999999999999
1535,2354708,Teloune,12.1,0.1
1536,2354709,Telimbiro,10.66667,-3.43333
1537,2354710,Teledougou Kanyi,11.0,-5.08333
1538,2354711,Tele,12.4,-4.433330000000001
1539,2354712,Tele,11.1475,-5.0766
1540,2354713,Telagama,12.8,-0.46667
1541,2354714,Teksagabo,12.92002,-1.56484
1542,2354715,Tekourou,11.55,-2.16667
1543,2354716,Teguitte,11.51667,-0.016669999999999997
1544,2354717,Tegueretinga,11.7,-1.2
1545,2354718,Tego,11.26667,-2.53333
1546,2354719,Tefare Parman,13.81879,0.11963
1547,2354720,Teboudo,12.40625,0.6333300000000001
1548,2354721,Tebo,12.65,-2.4333299999999998
1549,2354722,Tebre,13.04145,-0.71808
1550,2354723,Tebere,12.65,-3.7666699999999995
1551,2354724,Tebera,13.671520000000001,-1.4385299999999999
1552,2354725,Tebela,13.83429,-2.33138
1553,2354726,Tebe,11.60016,-4.69027
1554,2354727,Tebarebogue,13.60989,0.31992
1555,2354728,Teagou,13.228670000000001,0.19965
1556,2354729,Te,12.45,-2.36667
1557,2354730,Tchofa,14.5359,-0.8138
1558,2354731,Tchinde,14.422670000000002,-1.50683
1559,2354732,Tchiba,14.252410000000001,-0.79543
1560,2354733,Tcheriba,12.26206,-3.0790599999999997
1561,2354734,Tayende,12.95,-2.0666700000000002
1562,2354735,Tayalo,11.85,-1.88333
1563,2354736,Taya,11.43333,-0.8
1564,2354737,Tawori,12.046669999999999,1.40688
1565,2354738,Tawe,11.62744,-4.44709
1566,2354739,Tawaka,12.36667,-2.1
1567,2354740,Tatoukou,13.38765,-1.16773
1568,2354741,Tatiri,12.01667,-2.11667
1569,2354742,Taparko,13.46536,-0.32444
1570,2354743,Tatana,10.65,-4.7333300000000005
1571,2354744,Tatalakat,14.77888,0.12985
1572,2354745,Tatakouele,10.05,-4.21667
1573,2354746,Tassia,12.84785,0.89556
1574,2354747,Tassiri,14.34469,0.01324
1575,2354748,Tassien,11.05,-1.7
1576,2354749,Tasombo,13.56642,-1.9311
1577,2354750,Tasse,12.38798,-1.9650900000000002
1578,2354751,Tassamakat,14.342820000000001,-0.41547
1579,2354752,Tarou,12.28333,0.26666999999999996
1580,2354753,Tarmounouma,13.04802,-2.4973
1581,2354754,Tarkala,12.99817,-1.25734
1582,2354755,Targo,11.91778,-1.65667
1583,2354756,Tarfila,10.71667,-4.71667
1584,2354757,Tareba,12.46667,-2.91667
1585,2354758,Tare,12.63333,-3.4833300000000005
1586,2354759,Tare,11.4,-1.83333
1587,2354760,Taranga,13.05719,-0.28469
1588,2354761,Tarama,11.69144,-4.47159
1589,2354762,Tarala,13.00558,-1.2291100000000001
1590,2354763,Tarafaga,10.36667,-5.2333300000000005
1591,2354764,Taraboule,13.985079999999998,-1.84345
1592,2354765,Taraba,13.15501,-2.49914
1593,2354766,Toptondi,14.38256,0.14059000000000002
1594,2354767,Tapoteon,10.8,-3.0
1595,2354768,Tapone,11.28333,-3.58333
1596,2354769,Tapoko,10.93333,-4.71667
1597,2354770,Tapoadyerma,12.28448,1.9398
1598,2354771,Province de la Tapoa,12.0,1.75
1599,2354772,Tapoa,12.137260000000001,1.4279700000000002
1600,2354774,Tapoa,12.12627,1.76747
1601,2354775,Tapere,13.19581,-2.01716
1602,2354776,Taperdouo,9.91667,-3.13333
1603,2354777,Tapelara,12.01667,-3.05
1604,2354778,Tapare,13.180370000000002,0.53708
1605,2354779,Tapara,10.53333,-3.5
1606,2354780,Taouremba,14.00405,-1.0995
1607,2354781,Taoubania,14.2346,-1.94497
1608,2354782,Taonsogo,12.22771,-1.7484099999999998
1609,2354783,Taonsongo,12.31667,-2.08333
1610,2354784,Taonsogo,13.363320000000002,-1.7885799999999998
1611,2354785,Taonsogo,13.03887,-1.70291
1612,2354786,Taonsogo,12.893360000000001,-1.3810200000000001
1613,2354787,Taonsogo,12.726469999999999,-1.01967
1614,2354788,Taonsogo,12.71667,-0.96667
1615,2354789,Taonsogo,12.62369,-1.38382
1616,2354790,Taonsogo,12.16667,-0.51667
1617,2354791,Taonsogo,12.15,-0.66667
1618,2354792,Tangsega,12.027389999999999,-1.4746299999999999
1619,2354793,Taonsoga,12.23333,-0.6333300000000001
1620,2354794,Taon,12.80283,-1.91305
1621,2354795,Taoboule,13.73651,-2.06155
1622,2354796,Tao,14.03524,0.33858
1623,2354797,Tao,12.98333,-0.1
1624,2354798,Tanzeogo,13.1239,-1.46079
1625,2354799,Tanzaka,13.92765,-0.6846399999999999
1626,2354800,Tanyoko,12.78333,-0.73333
1627,2354801,Tanwolbougou,12.03333,0.78333
1628,2354802,Tanwolbougou,12.05,0.78333
1629,2354803,Tanwaka,12.15,-0.75
1630,2354804,Nakomtenga,12.23644,-1.3357
1631,2354805,Tangouefo,12.944339999999999,-1.85231
1632,2354806,Tanvi,12.253860000000001,-1.32187
1633,2354808,Tantyenge,12.75,-2.25
1634,2354809,Tantyana,12.663680000000001,1.93785
1635,2354810,Tantouo,10.23333,-2.88333
1636,2354811,Tantiri,12.59869,1.38717
1637,2354812,Tantiora,10.6,-3.21667
1638,2354813,Tantiaka,12.25,0.28333
1639,2354814,Tantiaka,12.16667,0.11667000000000001
1640,2354815,Tantiabougou,13.20071,0.8759899999999999
1641,2354816,Tanteoun,9.9,-2.9
1642,2354817,Tanteon,10.01667,-2.86667
1643,2354818,Tantaogo,13.01089,-1.0469899999999999
1644,2354819,Tantale,12.78333,-2.0666700000000002
1645,2354820,Tantako,12.23333,-0.23333
1646,2354821,Tanta,13.175089999999999,0.19815
1647,2354822,Tansyega,12.58333,-0.9166700000000001
1648,2354823,Tansobdogo,12.74985,-1.0886799999999999
1649,2354824,Tansonbingo,12.38333,-2.0666700000000002
1650,2354825,Tansologo,12.18333,-0.75
1651,2354826,Tansogo,12.91667,-2.23333
1652,2354827,Tansobtenga,11.68333,-0.1
1653,2354828,Tansoptanguen,12.80295,-1.2624799999999998
1654,2354829,Tansobentinga,12.30227,-1.32348
1655,2354830,Tassila,12.419960000000001,-4.39037
1656,2354831,Tansilague,10.45,-4.53333
1657,2354832,Tansie,10.81667,-3.26667
1658,2354833,Tansera,13.42756,-1.10646
1659,2354834,Tansera,12.51667,-0.55
1660,2354835,Tansega,13.429110000000001,-1.2466
1661,2354836,Tansega,13.28168,-1.01414
1662,2354837,Tansega,13.09655,-1.41545
1663,2354838,Tansega,12.18333,-0.75
1664,2354839,Tansega,12.11667,-0.51667
1665,2354840,Tansabelgo,12.961269999999999,-1.82256
1666,2354841,Tansarga,11.87528,1.86694
1667,2354842,Tansahelogo,12.46667,-0.65
1668,2354843,Tansaboulougou,13.548010000000001,-1.35155
1669,2354844,Tansabolore,12.6,-0.55
1670,2354845,Tansabla,10.9,-3.0
1671,2354846,Tansabelgo,12.67747,-1.01235
1672,2354847,Tanpouya,13.00874,-1.99804
1673,2354848,Tanpour,11.2,-3.13333
1674,2354849,Tanpour,10.86667,-2.91667
1675,2354850,Tanporodoga,12.75,-0.53333
1676,2354851,Tanpor,9.88333,-2.91667
1677,2354852,Tanpogotenga,13.21662,-0.56715
1678,2354853,Tanpelren,13.19781,-0.49946
1679,2354854,Tanpelren,13.12425,-0.4276
1680,2354855,Tanpelga,13.4743,-1.5138
1681,2354856,Tanpelga,13.40516,-1.9225900000000002
1682,2354857,Tanpelga,13.1227,-1.29854
1683,2354858,Tanpelga,13.05063,-1.09199
1684,2354859,Tantogo,12.914439999999999,-1.2191299999999998
1685,2354860,Tampelga,12.75123,-1.53314
1686,2354861,Tanpelga,12.3,-2.13333
1687,2354862,Tanpelaga,14.028410000000001,-2.25481
1688,2354863,Tanpe,10.96667,-3.35
1689,2354864,Tanpani,10.31667,-4.88333
1690,2354865,Tanpanga,13.476189999999999,-0.02337
1691,2354866,Tanouarbougou,11.91667,0.9833299999999999
1692,2354867,Tanoa,12.254439999999999,1.84808
1693,2354868,Tannye,13.41385,-1.53586
1694,2354869,Tannye,13.403789999999999,-1.8843
1695,2354870,Tannmye,13.18951,-1.7877
1696,2354871,Tanngrawa,13.87274,-1.01597
1697,2354872,Tann-Fwogou,13.02542,0.56723
1698,2354873,Tannfwo,13.04555,0.09816
1699,2354874,Tangowoko,12.8835,-1.02216
1700,2354875,Tanmpouy,12.81667,-2.36667
1701,2354876,Tampelga,12.693019999999999,-1.04177
1702,2354877,Tanmpelga,12.51667,-0.9833299999999999
1703,2354878,Tampelga,12.86472,-1.22676
1704,2354879,Tampaga,12.87,-1.21891
1705,2354880,Tanmiougou,12.76667,-2.28333
1706,2354881,Tanmiga,13.276779999999999,-1.37342
1707,2354882,Tanmboubwanga,12.13333,0.88333
1708,2354883,Tanmbouana,12.52747,1.0418100000000001
1709,2354884,Tanmbongou,12.23333,0.3
1710,2354885,Tanmbiwobogo,12.73333,-0.73333
1711,2354886,Tanmbiga,13.294210000000001,0.3452
1712,2354887,Tanmbefoana,12.76667,0.3
1713,2354888,Tanmbanpera,12.86667,0.73333
1714,2354889,Tanloule,11.15,-3.15
1715,2354890,Tanloukoa,13.08527,-1.52006
1716,2354891,Tanlouka,12.15,-0.8
1717,2354892,Tanlili,13.58663,-1.7349299999999999
1718,2354893,Tanlili,13.4029,-2.15877
1719,2354894,Tanlilli,12.7593,-1.28545
1720,2354895,Tanlilli,12.67223,-1.58913
1721,2354896,Tanlilli,12.63918,-1.82412
1722,2354897,Tanlarghin,12.30151,-1.38858
1723,2354898,Tanlalle,13.36958,-1.6807599999999998
1724,2354899,Tanlalle,13.364289999999999,-1.7102400000000002
1725,2354900,Tanlale,13.019969999999999,-1.48678
1726,2354901,Tanlale,12.66879,-1.43969
1727,2354902,Tankyilounga,12.18333,0.3
1728,2354903,Tankyenga,13.452620000000001,-0.78751
1729,2354904,Tankyana,13.298729999999999,0.83524
1730,2354905,Tankyaga,13.270129999999998,0.5817100000000001
1731,2354906,Tankwense,12.41667,-0.48333000000000004
1732,2354907,Tankwarou,12.96667,0.95
1733,2354908,Tankwaou,12.18333,0.28333
1734,2354909,Tankui,11.83333,-3.7833300000000003
1735,2354910,Tankourou,12.43333,0.03333
1736,2354911,Tankoulounga,13.462879999999998,-1.47128
1737,2354912,Tankouli,13.31674,0.85777
1738,2354913,Tankoudoumou,13.04936,0.87641
1739,2354914,Tankotenga,12.2,-0.75
1740,2354915,Tankori,13.443679999999999,-0.17672000000000002
1741,2354916,Tankora,10.3,-3.35
1742,2354917,Tankolon,10.33333,-3.05
1743,2354918,Tankogonadye,13.562029999999998,0.73575
1744,2354919,Tankogo,11.96667,-0.48333000000000004
1745,2354920,Tankiedougou,11.11667,-3.4
1746,2354921,Tankedo,12.76667,-2.4333299999999998
1747,2354922,Tanion,10.4,-4.71667
1748,2354923,Tanieteoun,9.91667,-2.85
1749,2354924,Taniangoro,10.5,-4.9
1750,2354925,Taniado,11.81667,-1.3
1751,2354926,Tani,14.202739999999999,-0.8531200000000001
1752,2354927,Tanhya,10.5,-2.9
1753,2354928,Tanhio,10.31667,-2.9
1754,2354929,Tang Yiba,12.48954,-1.2620799999999999
1755,2354930,Tangzougou,12.9292,-1.24879
1756,2354931,Tangye,13.34966,-1.1234600000000001
1757,2354932,Tangwoko,12.95889,-1.3235
1758,2354933,Tanguin,13.04378,-2.61948
1759,2354934,Tanguin,11.83333,-1.35
1760,2354935,Tanguilissi,13.08061,-2.11593
1761,2354936,Tanguiligui,13.390189999999999,-1.24505
1762,2354937,Tanguiema,13.2138,-1.25053
1763,2354938,Tanguen,13.19505,-1.8183200000000002
1764,2354939,Tanguen,13.06511,-0.41866000000000003
1765,2354940,Tanguen,13.02561,-1.86002
1766,2354941,Tanguen,12.8,-0.96667
1767,2354942,Tanguen,12.61667,-0.6333300000000001
1768,2354943,Tanguen,12.6,-0.65
1769,2354944,Tanguen,12.38333,-0.68333
1770,2354945,Tanguen,12.35,-0.65
1771,2354946,Tanguen,12.23333,-0.8
1772,2354947,Tanguen,12.08333,-0.016669999999999997
1773,2354948,Tangue,12.9,-2.5666700000000002
1774,2354949,Tangue,11.88333,-1.43333
1775,2354950,Tangsie,10.91667,-2.9
1776,2354951,Tangsega,12.90236,-1.05098
1777,2354952,Tangsega,12.72508,-1.34414
1778,2354953,Tangsega,12.68953,-1.54336
1779,2354954,Tansega,12.66027,-1.80415
1780,2354955,Tang-Sega,12.25066,-1.6346
1781,2354956,Tansega,12.14102,-1.59645
1782,2354957,Tangseba,12.2,-0.65
1783,2354958,Tangrawal,13.74709,-1.4482
1784,2354959,Tangpore,12.5,-0.88333
1785,2354960,Tangoura,10.63333,-4.75
1786,2354961,Tangoungfouanou,12.78768,1.27209
1787,2354962,Tanhouna,12.489360000000001,-4.19629
1788,2354963,Tangoul,14.94476,-0.020309999999999998
1789,2354964,Tangouko,12.688080000000001,-1.48726
1790,2354965,Tangouissi,11.96667,-1.61667
1791,2354966,Tangouena,10.6,-4.7333300000000005
1792,2354967,Tangoue,11.13333,-0.7
1793,2354968,Tankounga,12.71577,-1.3362399999999999
1794,2354969,Tangoko,13.20715,-1.21914
1795,2354970,Tangoden,12.419310000000001,-1.9505
1796,2354971,Tanghin-Dassouri,12.27256,-1.7170400000000001
1797,2354972,Tanghin,12.71229,-1.4768
1798,2354973,Tanghin,12.04449,-1.2292100000000001
1799,2354974,Tangen Wobdo,12.15,-2.01667
1800,2354975,Tagalla,12.993160000000001,-1.22509
1801,2354976,Tangen,12.96667,-2.2
1802,2354977,Tanguen,12.94501,-1.00411
1803,2354978,Tanguin,12.894969999999999,-1.64648
1804,2354979,Tangen,12.8,-2.28333
1805,2354980,Tanguen,12.789489999999999,-1.2876299999999998
1806,2354981,Tangsega,12.72824,-1.9269
1807,2354982,Tanguen,12.653139999999999,-1.17908
1808,2354983,Tanghin,12.57623,-1.50491
1809,2354984,Tanguen,12.49346,-1.16362
1810,2354985,Silmiyiri,12.4197,-1.5427799999999998
1811,2354986,Tanghin,12.39896,-1.5328899999999999
1812,2354987,Tanghin,12.347560000000001,-1.36553
1813,2354988,Tangen,12.26667,-0.41667
1814,2354989,Tanguen,12.26099,-1.9579099999999998
1815,2354990,Tanghin,12.12537,-1.58056
1816,2354991,Tangen,12.13333,-0.56667
1817,2354992,Tanguen,12.04294,-1.5711
1818,2354993,Tanguen,12.76488,-1.7713
1819,2354994,Tange,12.68333,-2.36667
1820,2354995,Tangbanano,10.75,-3.23333
1821,2354996,Tangzougou,12.73789,-1.3598
1822,2354997,Tanga Zakou,13.353779999999999,-2.59096
1823,2354998,Tangaye,13.54009,-2.5468900000000003
1824,2354999,Tangay,12.08333,0.016669999999999997
1825,2355000,Tangatougou,13.25141,0.75918
1826,2355001,Tangassoko,11.01667,-0.9833299999999999
1827,2355002,Tangasogo,13.145970000000002,-1.06735
1828,2355003,Tangasera Boken,12.9,-0.95
1829,2355004,Tangas,14.9801,-0.25
1830,2355005,Tangari,13.53231,-2.71046
1831,2355006,Tangare,11.78333,-0.55
1832,2355007,Tangapore,13.0,-0.95
1833,2355008,Tangpore,12.85253,-1.07091
1834,2355009,Tangapella,13.254529999999999,-1.3534
1835,2355010,Tangano,12.58333,-0.65
1836,2355011,Tangangari,13.25353,0.98531
1837,2355012,Tangakoulouga,12.13333,-2.41667
1838,2355013,Tangabangoa,13.9203,-2.28784
1839,2355014,Tanga,13.28439,0.41208
1840,2355015,Tanga,12.4,-0.41667
1841,2355016,Tanga,12.21667,0.53333
1842,2355017,Tanga,10.66667,-4.28333
1843,2355018,Tanfwogou,13.04294,0.4577
1844,2355019,Tanfogo,13.6913,-0.47541000000000005
1845,2355020,Tanebya,12.71667,0.21666999999999997
1846,2355021,Tane,13.0591,-3.3869
1847,2355022,Tane,12.43333,-3.0
1848,2355023,Tandyoua,13.04845,0.16525
1849,2355024,Tandjari,12.19312,0.33515
1850,2355025,Tandyallo,13.3334,0.8084100000000001
1851,2355026,Tandouka,12.9342,-1.0595
1852,2355027,Tandou,12.55,-2.86667
1853,2355028,Tandaren,12.01667,-0.21666999999999997
1854,2355029,Tandara,12.68887,-1.09851
1855,2355030,Tandakoy,14.02315,0.34752
1856,2355031,Tandaga,12.89257,-1.07883
1857,2355032,Tandaga,12.41667,-0.58333
1858,2355033,Tandaga,12.02265,-1.34685
1859,2355034,Tandaga,11.5,-0.016669999999999997
1860,2355035,Tanbwanga,13.00641,-0.16642
1861,2355036,Tanbwana,13.02818,0.04767
1862,2355037,Tanbouandi,12.55,0.96667
1863,2355038,Tanbossa,11.96667,-2.46667
1864,2355039,Tanbolo,11.1,-1.13333
1865,2355040,Tanbiri,11.16667,-2.98333
1866,2355041,Tanbili,10.71667,-3.01667
1867,2355042,Tanbili,10.33333,-2.9333299999999998
1868,2355043,Tanbili,10.31667,-3.2
1869,2355044,Tanbilbongou,12.25,0.05
1870,2355045,Tanbianga,12.55,-0.9166700000000001
1871,2355046,Tanbaougou,12.48333,0.96667
1872,2355047,Tanlargo,12.97457,-1.30897
1873,2355048,Tanaden,13.51045,0.10134
1874,2355049,Tamwonou,12.91667,0.46667
1875,2355050,Tamsweoghin,12.15,-0.55
1876,2355051,Tamssin,11.85,-1.4
1877,2355052,Tamse,13.362929999999999,-1.28139
1878,2355053,Tamse,12.77206,-1.84645
1879,2355054,Tamsen,12.74549,-1.01484
1880,2355055,Tamse,12.33333,-0.8
1881,2355056,Tamsbongogo,12.8,-2.71667
1882,2355057,Tamnere,12.221860000000001,-1.8910900000000002
1883,2355058,Tampoui,12.93084,-1.8897599999999999
1884,2355059,Tampoui,12.720930000000001,-1.25542
1885,2355060,Tampouy,12.39995,-1.5708600000000001
1886,2355061,Tampouy,12.12759,-1.67487
1887,2355062,Tampoussoumdi,12.18642,-1.68061
1888,2355063,Tampoure,12.8,-2.23333
1889,2355064,Tampour,10.2,-2.8166700000000002
1890,2355065,Tampoui,13.62945,-1.81846
1891,2355066,Tampoui,12.41667,-2.1833299999999998
1892,2355067,Tampoui,11.71667,-1.2833299999999999
1893,2355068,Tamponga,13.43314,-1.5468
1894,2355069,Tampogo,12.59169,-1.0659999999999998
1895,2355070,Tampezi,11.01667,-0.56667
1896,2355071,Tampetou,13.1964,0.8583299999999999
1897,2355072,Tampela,12.31667,-0.35
1898,2355073,Tampaogo,12.65446,-1.01671
1899,2355074,Tampaga,12.746939999999999,-1.2212100000000001
1900,2355075,Tamona,11.13333,-1.15
1901,2355076,Tamoanka,12.37577,0.01634
1902,2355077,Tamniga,13.31497,-1.6906
1903,2355078,Tamniga,13.13372,-1.2433
1904,2355079,Tamna,13.26116,0.79082
1905,2355080,Tammsse,11.73333,-1.33333
1906,2355081,Tampouya,13.16252,-2.27042
1907,2355082,Tampoure,13.06818,-2.21137
1908,2355083,Tanliguesse,12.6721,-1.02378
1909,2355084,Tamissi,12.7351,-1.3709200000000001
1910,2355085,Tamissi,12.64509,-1.56618
1911,2355086,Tamissi,12.559619999999999,-1.24892
1912,2355087,Tamipar,9.85,-2.8
1913,2355088,Tamiougou,12.85,-0.5
1914,2355089,Tamikpuere,11.13333,-3.0
1915,2355090,Tamiga,12.925980000000001,-1.1409799999999999
1916,2355091,Tamiga,12.92108,-1.8862
1917,2355092,Tamidou,12.21667,-0.6
1918,2355093,Tamidou,12.08333,-0.41667
1919,2355094,Tanvousse,13.746770000000001,-2.41525
1920,2355095,Tamfoagou,12.96667,0.51667
1921,2355096,Tamdho,13.128570000000002,-0.73236
1922,2355097,Tambouri,12.55,-0.71667
1923,2355098,Tambougou,13.12065,-1.4327
1924,2355099,Tambouana,12.05,0.7
1925,2355100,Tambondi,13.40918,0.569
1926,2355101,Tambogo,12.819180000000001,-1.2553299999999998
1927,2355102,Tambogo,12.74825,-1.4699
1928,2355103,Tambiri,13.31045,-0.16360999999999998
1929,2355104,Tambiperga,12.57687,1.36838
1930,2355105,Tambiougou,13.202179999999998,-1.61735
1931,2355106,Tambiga,13.491660000000001,0.58581
1932,2355107,Tambiga,12.9,0.86667
1933,2355108,Tambiga,12.48818,1.3498
1934,2355109,Tambiga,12.01667,0.65
1935,2355110,Tambifwanou,12.76667,0.33333
1936,2355111,Tambifaogo,13.357579999999999,-0.3139
1937,2355112,Tambidi,13.293729999999998,-0.28139000000000003
1938,2355113,Tambibourma,12.86667,0.65
1939,2355114,Tambetin,12.317739999999999,-1.8075700000000001
1940,2355115,Tamberi,13.45028,0.48927
1941,2355116,Tambela,12.41667,-0.33333
1942,2355117,Tambela,12.18333,-0.36667
1943,2355118,Tambarga,11.45,1.2166700000000001
1944,2355119,Tambaogo,12.48333,-0.4
1945,2355120,Tambao Mines,14.8,0.08333
1946,2355121,Tamayaga,12.96667,-2.13333
1947,2355122,Tamassogo,13.27265,-1.08571
1948,2355123,Tamassogo,12.23333,-0.53333
1949,2355124,Tamassari,10.65,-5.33333
1950,2355125,Tamassaogo,13.15802,-0.36871
1951,2355126,Tamassogo,12.74443,-1.25872
1952,2355127,Tamansongo,12.38333,-0.6333300000000001
1953,2355128,Tamagan,11.1,-2.65
1954,2355129,Tamadjilili,14.4071,-0.5677
1955,2355130,Bagma,12.33649,-1.7723200000000001
1956,2355131,Taltalol,14.645270000000002,-0.76454
1957,2355132,Tallo,12.7,-2.51667
1958,2355133,Taloueguen,13.319189999999999,-0.8225899999999999
1959,2355134,Talle,13.6144,-2.73466
1960,2355135,Talkaouna,9.7,-2.96667
1961,2355136,Talisoukoa,10.75,-5.1
1962,2355137,Talintoaga,12.50487,1.03362
1963,2355138,Talie,10.55,-2.98333
1964,2355139,Talbonan,12.32202,1.46344
1965,2355140,Talanpoura,10.01667,-3.21667
1966,2355141,Tanlale,12.957130000000001,-1.8618700000000001
1967,2355142,Takpoulira,10.11667,-3.5
1968,2355143,Takpo,9.85,-2.83333
1969,2355144,Takoyoyora,10.56667,-3.56667
1970,2355145,Takoy,14.335220000000001,-0.36117
1971,2355146,Takoutou,12.48525,1.7141400000000002
1972,2355147,Takoura,10.53333,-3.5333300000000003
1973,2355148,Takoulo,13.320620000000002,0.8089
1974,2355149,Takatami,13.24823,0.95085
1975,2355150,Takasinle,12.66667,-0.36667
1976,2355151,Takabougou,14.64016,0.15247
1977,2355152,Taka,14.13764,0.2499
1978,2355153,Taima,14.611889999999999,-0.55502
1979,2355154,Taima,14.12035,-0.8404
1980,2355155,Tailale,14.861939999999999,-0.34309
1981,2355156,Tahati,13.865020000000001,-1.07945
1982,2355157,Tagyama,13.40165,-1.5351299999999999
1983,2355158,Tagouassoni,10.48333,-5.316669999999999
1984,2355159,Plateau du Tagouara,10.91667,-5.33333
1985,2355160,Tagou,11.16667,0.6333300000000001
1986,2355161,Tago,12.96667,-2.63333
1987,2355162,Tagbaladougou,10.78333,-4.7
1988,2355163,Taga Sougo,14.73008,-0.7532800000000001
1989,2355164,Tagangal,14.98835,-0.00611
1990,2355165,Taga,11.16667,-2.2
1991,2355166,Taga,10.9,-4.5166699999999995
1992,2355167,Tafogo,13.41513,-0.54102
1993,2355168,Tafe,13.065539999999999,0.50007
1994,2355169,Tafay,14.1753,-2.18838
1995,2355170,Tafakou,13.99291,-0.31487
1996,2355171,Tadoteo,9.8,-2.8
1997,2355172,Tadio,14.085220000000001,-0.47858999999999996
1998,2355173,Tadiegnegui,14.26264,-2.52038
1999,2355174,Tadani,13.48435,-0.10636
2000,2355175,Tadambes,14.87449,0.142
2001,2355176,Taptenga,12.37245,-1.4518
2002,2355177,Tabouale,10.58333,-2.95
2003,2355178,Tabou,11.35,-2.15
2004,2355179,Tabou,10.55,-3.01667
2005,2355180,Tabio,10.23333,-2.78333
2006,2355181,Tabassi,14.46845,-1.13105
2007,2355182,Tabaremba,13.990820000000001,-1.09636
2008,2355183,Taa,12.15,-3.4
2009,2355184,Syoro,12.2175,-1.67556
2010,2355185,Syigo,12.63333,-2.46667
2011,2355186,Syengou,12.29706,1.40888
2012,2355187,Syen,12.66667,-2.5666700000000002
2013,2355188,Sussuta,11.7,-1.06667
2014,2355189,Suo,11.25964,-4.48995
2015,2355190,Suo,11.08366,-4.6877699999999995
2016,2355191,Sune,11.83333,-2.23333
2017,2355192,Sumi,11.2908,-4.6429
2018,2355193,Sulimissi,11.86667,-1.48333
2019,2355194,Sulimiegou,11.96667,-1.45
2020,2355195,Suldonde,11.91667,-1.51667
2021,2355196,Sui,12.61667,-2.8
2022,2355197,Soyo,11.41174,-4.50928
2023,2355198,Souxuy,12.6,-3.4666699999999997
2024,2355199,Tokpora,10.295,-3.05667
2025,2355200,Soussougou,11.93333,-1.0333299999999999
2026,2355201,Soussou,13.51865,-2.35165
2027,2355202,Soussie,10.36667,-3.93333
2028,2355203,Souryala,13.2105,-1.42435
2029,2355204,Soury,12.43333,-3.5166699999999995
2030,2355205,Souroute,11.26877,-4.6877699999999995
2031,2355206,Sorona,13.0015,-3.3043
2032,2355207,Souroukoudinga,10.11667,-4.2
2033,2355208,Souroukoudinga,11.23285,-4.5385
2034,2355209,Sourougoudou,13.705779999999999,-2.8382400000000003
2035,2355210,Souroube,9.88333,-3.05
2036,2355211,Province du Sourou,13.25,-3.0
2037,2355212,Sourou,12.75,-3.41667
2038,2355213,Sourou,12.83333,-3.21667
2039,2355214,Sourou,12.74163,-1.8689099999999998
2040,2355215,Sourou,11.42278,-1.8888900000000002
2041,2355216,Souri,11.41033,-5.0682599999999995
2042,2355217,Sourkoutomo,10.31667,-4.25
2043,2355218,Sourkoudougou,11.33196,-4.33826
2044,2355219,Sourisso,10.46667,-5.16667
2045,2355220,Souri,12.85,-2.6
2046,2355221,Sourgoubila,12.41462,-1.80644
2047,2355222,Sourgou,12.13333,-2.28333
2048,2355223,Sour,12.78333,-3.5
2049,2355224,Souhonkobou,12.69818,1.02809
2050,2355225,Souomse,13.053980000000001,-2.1641
2051,2355226,Sounsouna,10.28333,-3.3833300000000004
2052,2355227,Sounle,12.01667,-3.35
2053,2355228,Jida Yarse,12.93483,-1.3966
2054,2355229,Soungolo,11.21529,-5.07723
2055,2355230,Soungaroundaga,11.32494,-4.56182
2056,2355231,Soungaribougou,11.25159,-5.14153
2057,2355232,Soune,13.1242,-4.0853
2058,2355233,Sounamlaka,14.01738,-2.61997
2059,2355234,Soun,12.4952,-4.0864
2060,2355235,Souloustenga,12.079180000000001,-1.2406
2061,2355236,Soumousso,11.01441,-4.04524
2062,2355237,Soumou,14.016110000000001,-1.46292
2063,2355238,Soumonkui,13.23507,-4.24325
2064,2355239,Soumeila,10.58333,-5.46667
2065,2355240,Soumde,11.95,-0.31667
2066,2355241,Soumbara,12.7294,-4.13
2067,2355242,Soumarani,13.2571,-3.2434
2068,2355243,Soumara Boumba,13.152999999999999,-3.2006
2069,2355244,Soumankui,12.51667,-3.65
2070,2355245,Souma,14.43695,-1.12828
2071,2355246,Souma,12.6,-3.26667
2072,2355247,Souma,11.76045,-4.16376
2073,2355248,Province du Soum,14.333329999999998,-1.25
2074,2355251,Soum,12.6,-2.3
2075,2355252,Soum,10.68333,-2.95
2076,2355253,Soulountou,13.49569,0.93658
2077,2355254,Soulougou,13.01667,0.3827
2078,2355255,Soulou,13.759889999999999,-2.47532
2079,2355256,Soulou,12.63333,-2.08333
2080,2355257,Soulogoudji,10.88333,-5.16667
2081,2355258,Soulogo,12.57351,-1.25946
2082,2355259,Souli,11.91667,-1.51667
2083,2355260,Soula,13.4112,-0.2172
2084,2355261,Soula,12.93333,-0.8
2085,2355262,Soula,12.03333,-2.08333
2086,2355263,Soula,11.96667,-1.2833299999999999
2087,2355264,Soula,13.36351,-0.25433
2088,2355265,Soukoutou,13.08736,0.8365799999999999
2089,2355266,Soukoudiankouli,12.1873,-4.3566
2090,2355267,Soukera,10.2585,-3.6157
2091,2355268,Souka,12.26667,-0.51667
2092,2355269,Souiyi,13.3043,-4.0332
2093,2355270,Sougyendi,13.30989,0.32408000000000003
2094,2355271,Sougoupyana,12.26667,0.06667000000000001
2095,2355272,Sougouma,13.21725,-1.88032
2096,2355273,Sougouma,11.62087,-4.88802
2097,2355274,Sougoudou,12.31667,0.3
2098,2355275,Sougou,11.6,-1.1
2099,2355276,Sougbini,12.8,-2.48333
2100,2355277,Soudouwilya,13.742720000000002,-1.11206
2101,2355278,Soudougui,11.20167,0.32361
2102,2355279,Soudougou,13.34194,-1.1224
2103,2355280,Soudougou,12.81667,-0.73333
2104,2355281,Soudogo,13.2096,-3.9415
2105,2355282,Soudiako,10.51667,-4.35
2106,2355283,Soubsi,13.11982,-1.35624
2107,2355284,Soubsi,13.06502,-1.37984
2108,2355285,Soubouy,11.85,-3.13333
2109,2355286,Soubouniabo,14.40789,0.15452
2110,2355287,Souboulafouani,12.219710000000001,1.14747
2111,2355288,Soubo,13.5048,-2.49293
2112,2355289,Soubironbiro,10.76667,-3.23333
2113,2355290,Soubeyra Nakoara,12.66667,-0.95
2114,2355291,Soubeira,12.81667,-0.9
2115,2355292,Soubare,11.36667,-1.76667
2116,2355293,Soubakaniedougou,11.18697,-4.8699
2117,2355294,Soubakaniedougou,10.46667,-5.0166699999999995
2118,2355295,Souarou,12.41667,0.1
2119,2355296,Souanko,12.11667,-3.56667
2120,2355297,Soualmou,12.63333,0.4
2121,2355298,Soua,11.15,-3.7
2122,2355299,Sotenga,12.73782,-1.6931200000000002
2123,2355300,Sossore,11.21667,-2.7
2124,2355301,Sosso,11.95,-3.31667
2125,2355302,Sospelga,13.42387,-1.9184599999999998
2126,2355303,Soroumboura,10.15,-3.41667
2127,2355304,Soroumbo,10.48333,-3.03333
2128,2355305,Soroumbara,10.48333,-3.16667
2129,2355306,Soropera,10.35,-3.0
2130,2355307,Soropende,13.54529,-1.13741
2131,2355308,Soropelise,13.0,-2.25
2132,2355309,Soropelise,12.85,-2.11667
2133,2355310,Soronkina,10.26667,-3.6166699999999996
2134,2355311,Soroni,12.7114,-3.20362
2135,2355312,Sorogo,13.3445,-2.26764
2136,2355313,Sorogo,14.1227,-2.61154
2137,2355315,Soroden,13.2983,-1.51254
2138,2355316,Soroden,13.2554,-1.10769
2139,2355317,Soroden,13.05141,-1.19223
2140,2355318,Seguedin,12.96747,-1.80225
2141,2355319,Segueden,12.90832,-1.9789
2142,2355320,Segueden,12.867389999999999,-1.7901799999999999
2143,2355321,Soroden,12.56667,-0.9
2144,2355322,Soroden,12.53333,-0.6
2145,2355323,Foret Classee de Sorobouli,11.88333,-2.88333
2146,2355324,Sorobouli,11.9,-2.95
2147,2355325,Soro Boule,14.11568,-1.8791799999999999
2148,2355326,Soro Boule,14.08959,-1.84953
2149,2355327,Soro,13.5728,-3.0247
2150,2355328,Soro,12.38333,-3.93333
2151,2355329,Sorkon,11.23333,-3.03333
2152,2355330,Sorkon,10.83333,-3.23333
2153,2355331,Seriba,12.8568,-3.65625
2154,2355332,Soriane,11.08333,-3.03333
2155,2355333,Sorhobou,12.60861,2.0230200000000003
2156,2355334,Sorgo,13.277020000000002,-1.5791600000000001
2157,2355335,Sorgo,13.17649,-1.10471
2158,2355336,Sorgane,13.65252,-0.8396899999999999
2159,2355337,Sorga,13.42557,0.63383
2160,2355338,Sorden,12.2,-0.53333
2161,2355339,Sorboulgou,13.423820000000001,-0.97215
2162,2355340,Soragara,10.5,-3.0666700000000002
2163,2355341,Sora,14.0001,-0.9119
2164,2355342,Sonrontyem,12.48333,-0.73333
2165,2355343,Sonpissi,11.53333,-1.2
2166,2355344,Sonpar,10.33333,-2.9
2167,2355345,Sono,12.82577,-3.4932
2168,2355346,Sonkounsi,13.50835,-2.34114
2169,2355347,Soni,12.86667,-3.3666699999999996
2170,2355348,Songya,13.2572,-1.82506
2171,2355349,Songou,11.16667,-0.6
2172,2355350,Songoteon,10.4,-2.9333299999999998
2173,2355351,Songotaba,13.84746,-1.9714900000000002
2174,2355352,Songori,13.44556,1.07361
2175,2355353,Songo,11.110560000000001,-1.0633299999999999
2176,2355354,Songo,10.98333,-0.88333
2177,2355355,Song Naba,12.95,-2.35
2178,2355356,Songnaba,12.71667,-0.8
2179,2355357,Song-Naba,12.41582,-1.9092200000000001
2180,2355358,Song Naba,12.3,-0.8
2181,2355359,Song Gretenga,12.23333,-0.28333
2182,2355360,Sondre,11.81667,-1.06667
2183,2355361,Sondere,12.12151,-1.91734
2184,2355362,Sonbola,10.6,-3.93333
2185,2355363,Sonaway,12.551689999999999,-1.1545299999999998
2186,2355364,Sonabou,12.38333,-3.25
2187,2355365,Sona,10.33333,-2.91667
2188,2355366,Sona,14.347470000000001,-1.26206
2189,2355367,Son,11.55,-2.9
2190,2355368,Son,11.21667,-3.81667
2191,2355369,Son,13.446489999999999,-2.3197099999999997
2192,2355370,Somyaleguem,12.66667,-2.35
2193,2355371,Somtingre,13.08971,-2.03247
2194,2355372,Sonmpera,10.2719,-3.3692800000000003
2195,2355373,Somnawa,13.58285,-2.6338
2196,2355374,Somnawey,12.6541,-1.3988
2197,2355375,Sompela,13.285039999999999,-2.25222
2198,2355376,Sombo,13.49039,-2.6793
2199,2355377,Somlayaka,13.33678,-1.1649200000000002
2200,2355378,Somlamessom,12.0199,-1.1818600000000001
2201,2355379,Somlamesma,13.342529999999998,-1.3
2202,2355380,Somlamesma,13.015789999999999,-1.8712799999999998
2203,2355381,Somiaga,13.503470000000002,-2.40849
2204,2355382,Somgande,12.55521,-1.84014
2205,2355383,Somgande,12.40927,-1.5026700000000002
2206,2355384,Some,12.38333,-2.21667
2207,2355385,Somde,12.74485,-1.43139
2208,2355386,Somlamessom,12.96362,-1.3684100000000001
2209,2355387,Somateon,10.36667,-2.9333299999999998
2210,2355388,Somassi,12.44518,-1.96314
2211,2355389,Somassen,12.04102,-1.39419
2212,2355390,Soma,11.98333,-3.41667
2213,2355391,Som,14.09048,-1.7196200000000001
2214,2355392,Som,14.10904,-2.43383
2215,2355393,Solzi,13.116079999999998,-1.4974299999999998
2216,2355394,Soltorou,14.072389999999999,-1.24926
2217,2355395,Solsi,13.43842,0.6671600000000001
2218,2355396,Solsala,13.824929999999998,-0.28173000000000004
2219,2355397,Solpe,9.78333,-2.9333299999999998
2220,2355398,Soloromnore,12.66667,-0.38333
2221,2355399,Solemnore,13.221379999999998,-0.80125
2222,2355400,Sologo Nogen,12.53333,-0.85
2223,2355401,Sologomnore,13.27002,-2.3317200000000002
2224,2355402,Sologo,12.13294,-1.47763
2225,2355403,Solobo,13.86104,-2.06377
2226,2355404,Salanso,12.17423,-4.08477
2227,2355405,Solemana,12.88333,-3.6166699999999996
2228,2355406,Solanga,13.513420000000002,-1.07128
2229,2355407,Solane,10.6,-5.4
2230,2355408,Sola,14.24705,-0.8144899999999999
2231,2355409,Sokourani,11.51182,-4.11602
2232,2355410,Sokouraba Ko,10.83333,-5.183330000000001
2233,2355411,Sokouraba,10.85,-5.183330000000001
2234,2355412,Sokoura,13.1799,-3.9927
2235,2355413,Sokoura,12.31667,-3.1833299999999998
2236,2355414,Sokoura,12.3,-3.6166699999999996
2237,2355415,Sokoura,11.88333,-3.33333
2238,2355416,Sokoura,10.0,-4.35
2239,2355417,Sokoundou,14.7,-0.26666999999999996
2240,2355418,Sokouloni,11.826310000000001,-4.79491
2241,2355419,Sokoundougou,12.70399,-1.3749
2242,2355420,Sokorani,11.0455,-5.383719999999999
2243,2355421,Sokorola,11.851980000000001,-5.10706
2244,2355422,Sokorola,11.40658,-4.80565
2245,2355423,Sokoro,12.78333,-3.9833300000000005
2246,2355424,Sokoro,11.62284,-4.996580000000001
2247,2355425,Soukadye,14.27661,0.10705999999999999
2248,2355426,Soin,12.78333,-3.81667
2249,2355427,Soden,13.701939999999999,-2.42512
2250,2355428,Soguenya,12.41667,-0.78333
2251,2355429,Sogpelse,12.25,-0.85
2252,2355430,Sogpelse,12.16667,-2.16667
2253,2355431,Sogpelce,12.03333,-2.1833299999999998
2254,2355432,Sogoyofia,11.39612,-4.61295
2255,2355433,Sorossarasso,11.19055,-4.04015
2256,2355434,Sogolzi,12.72752,-1.53357
2257,2355435,Sogodin,13.26839,-2.25244
2258,2355436,Sogoden,13.363079999999998,-1.824
2259,2355437,Sogoden,12.86667,-0.51667
2260,2355438,Sogoden,12.67993,-1.07451
2261,2355439,Sogdin,12.4846,-1.49301
2262,2355440,Segodin,12.31736,-1.4172799999999999
2263,2355441,Sagho,13.72194,-1.00494
2264,2355442,Sofina,11.822519999999999,-4.86877
2265,2355443,Sofekel,14.07492,0.3
2266,2355444,Soffi,14.05175,-1.85221
2267,2355445,Soferi,13.183620000000001,0.46137
2268,2355446,Sodrotenga,12.8248,-1.8236
2269,2355447,Sodien,12.18333,-3.2833300000000003
2270,2355448,Sodairi,11.46667,-0.28333
2271,2355449,Soboule,14.380579999999998,-1.6973599999999998
2272,2355450,Sobono,13.7946,-2.31937
2273,2355451,Sobon,12.65,-3.93333
2274,2355452,Sobatanga,14.04539,-2.2195400000000003
2275,2355453,Sobara,10.45,-5.3
2276,2355454,Sobaka,11.76667,-1.7166700000000001
2277,2355455,Soapa,13.757060000000001,-0.73231
2278,2355456,Soankui,12.9,-3.9666699999999997
2279,2355458,Soana,12.05,-3.6
2280,2355459,Soala,12.65569,-1.9637
2281,2355460,Soakui,12.5,-3.41667
2282,2355461,Soaga,12.83333,-0.95
2283,2355462,Soa,12.78333,-2.3
2284,2355463,Soa,12.51667,-2.16667
2285,2355464,So,11.2653,-4.48592
2286,2355465,So,14.185189999999999,-1.64995
2287,2355466,Sare,11.02208,-4.114809999999999
2288,2355467,Smairi,11.61,-5.0706
2289,2355468,Siyoro,11.91667,-2.73333
2290,2355469,Sivi,11.97776,-4.37143
2291,2355470,Sitigo,13.467270000000001,-2.02337
2292,2355471,Sitiena,10.6,-4.8
2293,2355472,Sitenga,13.97197,0.30956
2294,2355473,Sitan,12.65,-2.1
2295,2355474,Province de la Sissili,11.33333,-2.25
2296,2355475,Sissile,13.203920000000002,-2.78843
2297,2355476,Sissile,13.18462,-2.74516
2298,2355477,Sisse Yargo,12.76838,-1.55146
2299,2355478,Sise-Yarse,13.590710000000001,-1.51652
2300,2355479,Sisseguena,10.6,-5.4
2301,2355480,Sisse,12.9,-3.7333300000000005
2302,2355481,Sissamba,13.506620000000002,-2.46506
2303,2355482,Sissamba,12.93333,-2.4333299999999998
2304,2355483,Sissa,12.56667,-0.23333
2305,2355485,Sissili,11.19346,-2.01307
2306,2355486,Cissin,12.32472,-1.5348899999999999
2307,2355487,Sisema,12.31667,-2.23333
2308,2355488,Sise,13.98484,-1.75393
2309,2355489,Sise,13.00919,-1.03372
2310,2355490,Silmissi,12.69473,-1.6339700000000001
2311,2355491,Sirkoun,10.23333,-2.95
2312,2355492,Sirkangou,14.29773,-0.08703
2313,2355493,Sirikoro,13.2378,-4.1141
2314,2355494,Siri,11.719330000000001,-4.85476
2315,2355495,Sirgui,13.03859,-1.2377
2316,2355496,Sirga,11.06667,-0.55
2317,2355497,Sirfou,13.74267,-1.90175
2318,2355498,Sirde,12.01667,-2.16667
2319,2355500,Sirakourasso,12.65,-3.6
2320,2355501,Sirakorosso,12.15,-3.11667
2321,2355502,Sirakoro,10.11667,-4.2
2322,2355503,Sirakoro,10.11667,-4.15
2323,2355504,Sirakoro,9.78333,-4.38333
2324,2355505,Sirakele,12.25,-3.13333
2325,2355506,Sipohin,11.73333,-3.3
2326,2355507,Siou,11.74677,-4.12502
2327,2355508,Siou,12.08333,-3.2
2328,2355509,Siotere,10.25,-2.8
2329,2355510,Sio,11.95,-3.2833300000000003
2330,2355511,Sio,11.33333,-2.1
2331,2355512,Sintoera,13.33867,-1.0312
2332,2355513,Sintio,11.78333,-2.41667
2333,2355514,Sintenana,10.61667,-3.2833300000000003
2334,2355515,Sintelma,13.55502,-2.90987
2335,2355516,Sintasso,11.169030000000001,-5.30011
2336,2355517,Sintao,14.166020000000001,-1.6651099999999999
2337,2355518,Sinssenne,11.91667,-1.2166700000000001
2338,2355519,Sinsoua,11.20037,-4.7828800000000005
2339,2355520,Sinsiriko,10.66667,-3.05
2340,2355521,Sinsinboudouo,10.18333,-3.16667
2341,2355522,Sinsiene,11.9,-1.58333
2342,2355523,Sinsarga,13.42641,0.52112
2343,2355524,Sinpiri,12.01667,-0.21666999999999997
2344,2355525,Sinofousse,13.60123,-2.43531
2345,2355526,Sin Ndiama,14.35855,-1.36982
2346,2355527,Sinloko,10.33333,-4.61667
2347,2355528,Sinkou,12.33333,-2.4333299999999998
2348,2355529,Sinkiero,10.75,-3.16667
2349,2355530,Sinimiougou,12.63333,-0.9
2350,2355531,Sini,12.6655,-1.58752
2351,2355532,Sini,12.60778,-0.46008999999999994
2352,2355533,Sini,12.61667,-0.43333
2353,2355534,Sinhin,11.30226,-4.63075
2354,2355535,Singouziguen,12.01667,-0.35
2355,2355536,Singou,11.13333,1.05
2356,2355537,Singou,11.3,1.0333299999999999
2357,2355538,Singou,11.1,-0.65
2358,2355539,Singorde,14.17288,-1.9735200000000002
