,Unnamed: 0,ID,location_name,lat,long
10590,10590,6913771,Abanda,15.068079999999998,-0.59805
10013,10013,2363251,Abanga,13.32429,0.31151
11035,11035,11980339,Abassi,12.27728,-1.13662
10551,10551,6874881,Abaye,13.4408,-3.9019
10012,10012,2363250,Aberekui,12.5,-3.41667
10011,10011,2363249,Abra,13.0914,-1.34752
10010,10010,2363248,Abra,13.75724,-1.47784
10009,10009,2363247,Absendo,12.11225,-1.77616
10166,10166,2570111,Absouma,12.42612,-1.4372
10008,10008,2363246,Absouya,12.6406,-1.05426
10577,10577,6913745,Adaboun,15.0635,-0.2432
10007,10007,2363244,Adierea,14.6254,-0.82004
10006,10006,2363243,Adiora,14.96543,-0.14993
10005,10005,2363242,Adjan,11.78333,-2.38333
10004,10004,2363241,Adjarara,14.9417,-0.1836
10003,10003,2363240,Adoudji,13.82906,-0.36104
10002,10002,2363239,Adoumboue,11.65,-3.46667
10001,10001,2363238,Afini,12.34788,1.87889
10000,10000,2363237,Agaisa,14.80515,-0.11522
9999,9999,2363236,Agamor,14.92354,0.02715
11183,11183,12238245,Agbana,11.77969,1.68796
9998,9998,2363235,Agora,14.72435,-0.1826
9997,9997,2363234,Ahkoudewe,12.48848,1.82605
2365,2365,2355546,Aiguille de Sindou,10.66667,-5.15
9996,9996,2363233,Aine,14.294579999999998,0.2744
9995,9995,2363232,Aine,14.35404,0.29877
9994,9994,2363231,Akoundel,13.95459,0.35773
9992,9992,2363229,Aladiou,14.0417,-0.93072
9991,9991,2363228,Alaga,13.01429,-0.96121
9990,9990,2363227,Alale,13.75982,-0.04427
9989,9989,2363226,Alale,13.8811,-1.44242
9988,9988,2363225,Alamini,13.87512,-1.56256
9987,9987,2363224,Alamou,13.43931,-1.11706
9986,9986,2363223,Alana,10.63333,-5.1
9985,9985,2363222,Alapera,9.78333,-3.05
9983,9983,2363220,Alfire,13.21715,-0.62647
10618,10618,7054471,Alga,13.60888,-1.54687
10593,10593,6913774,Alibones,15.05291,-0.44073
11091,11091,12122222,Alidougou,9.66882,-4.29263
9982,9982,2363219,Aligaga,13.76363,0.40064
9981,9981,2363218,Alkoma,14.261170000000002,0.06946000000000001
9980,9980,2363217,Alkousiri,13.02924,0.00049
9993,9993,2363230,Alla Bamguel,14.33101,-1.19873
9979,9979,2363216,Allakoum,14.43439,-0.27317
9984,9984,2363221,Allawallam,14.19202,-1.70199
9978,9978,2363215,Almande,13.01589,0.22408000000000006
9977,9977,2363214,Alobiga,11.0,-0.91667
9976,9976,2363213,Alondi,12.62627,1.46091
9975,9975,2363212,Alondigwena,12.03333,0.93333
9974,9974,2363211,Alora,14.06199,-0.8431299999999999
9973,9973,2363210,Alouba,12.05,0.96667
9972,9972,2363209,Amadi Saguidji,14.4538,-1.6900700000000002
10428,10428,6860076,Amarasinde,14.34069,0.32848
9956,9956,2363193,Ambou Waga,12.93333,0.91667
10499,10499,6873964,Amdama,14.04813,-1.3934
9970,9970,2363207,Amene,13.97401,-2.5429
9969,9969,2363206,Amenekui,12.48333,-3.983330000000001
9968,9968,2363205,Aminbiri,9.93333,-3.1
10684,10684,10121217,Amiso Hotel,12.36647,-1.52749
9967,9967,2363204,Amissia,13.66288,-0.28309
9966,9966,2363203,Amvo,14.126729999999998,-0.85813
9965,9965,2363202,Anaga,12.43676,2.2311400000000003
9964,9964,2363201,Anakatan,14.96611,0.20869
9963,9963,2363200,Anbarkoura,10.06667,-3.18333
9962,9962,2363199,Andekanda,13.96739,-2.26554
9960,9960,2363197,Andem,12.7676,-1.23889
9961,9961,2363198,Andemtenga,12.32417,-0.30917
9959,9959,2363196,Andeulay,13.07924,0.6481600000000001
9958,9958,2363195,Anekui,11.81667,-3.68333
9957,9957,2363194,Ankouma,13.73911,-0.75442
9955,9955,2363192,Ansolma,13.67725,-2.18296
9954,9954,2363191,Ansouara,12.93333,-0.65
9953,9953,2363190,Ansouri,13.31148,-1.76198
9952,9952,2363189,Antia,13.44155,-0.06142
9951,9951,2363188,Antoa,12.91667,-0.96667
9950,9950,2363187,Antyaga,12.23314,1.90854
9949,9949,2363186,Aolo Bele,14.26418,-1.05462
9948,9948,2363185,Aorema,13.66976,-2.33739
9947,9947,2363184,Aoura,13.15056,0.93213
9946,9946,2363183,Aourema,13.3402,-3.92
9945,9945,2363182,Ara,14.31189,-0.92733
9944,9944,2363181,Arae,14.59747,-1.40042
9943,9943,2363180,Arakora,10.2,-3.33333
9942,9942,2363179,Aranboura,10.03333,-3.1
9941,9941,2363178,Arbete,13.83248,-2.57593
10749,10749,11205731,Arbinda Department,14.22528,-0.85972
9939,9939,2363176,Arbolle,12.85,-2.05
9938,9938,2363175,Ardiaradiay,14.35034,-0.58836
9940,9940,2363177,Aribile,14.08089,-1.09409
9937,9937,2363174,Aribinda,14.229629999999998,-0.8653700000000001
10645,10645,7730466,Aribinda Airport,14.215420000000002,-0.89569
9936,9936,2363173,Aribinda Zeno,14.2804,-0.8189
9935,9935,2363172,Ariblana,10.91667,-5.0666699999999985
9934,9934,2363171,Arly,11.58333,1.46667
10640,10640,7730461,Arly Airport,11.597,1.483
9932,9932,2363169,Arma,13.657229999999998,-0.8394299999999999
10474,10474,6873926,Armedji Tifouga,14.6478,-1.541
9931,9931,2363168,Arofo,13.13474,-1.38158
9930,9930,2363167,Arouesma,13.09009,-1.27556
9929,9929,2363166,Arwaskoy,14.8548,0.1824
9928,9928,2363165,Asidim,14.46375,-0.28178000000000003
10587,10587,6913767,Asseddi,15.0182,-0.5338
9927,9927,2363164,Assinga,14.47475,-0.35223000000000004
9926,9926,2363163,Assio,11.66667,-3.13333
9925,9925,2363162,Assiopo,11.31667,-2.08333
9924,9924,2363160,Attoum,10.63333,-2.98333
9923,9923,2363159,Atyeri,12.88333,0.25
9922,9922,2363158,Atyoungbana,12.05,0.93333
9921,9921,2363157,Avogonia,11.0,-1.13333
9920,9920,2363156,Ayagorou,14.55338,-0.7188399999999999
9919,9919,2363155,Ayaraba,12.79137,-1.0619299999999998
9918,9918,2363154,Ayoubakolon,12.6215,-4.0843
10682,10682,10115205,Azalai Hotel Independance,12.36649,-1.51663
10585,10585,6913765,Azarzi,15.04344,-0.57044
9917,9917,2363153,Aziga,11.86667,-2.36667
10704,10704,10629046,BICIAB // Agence Prestige,12.36259,-1.51819
10703,10703,10629040,BICIAB // Banfora,10.64225,-4.76269
10705,10705,10629050,BICIAB // Bobo Dioulasso,11.17516,-4.30162
10715,10715,10629065,BICIAB // Bobo2,11.1664,-4.24132
10707,10707,10629057,BICIAB // Dedougou,12.46281,-3.46082
10713,10713,10629063,BICIAB // Fada Ngourma,12.05989,0.36019
10701,10701,10629032,BICIAB // Gounghin,12.35921,-1.54273
10710,10710,10629060,BICIAB // Koudougou,12.25165,-2.36356
10709,10709,10629059,BICIAB // Koupela,12.18148,-0.35371
10711,10711,10629061,BICIAB // Loudun,12.36492,-1.52008
10716,10716,10629066,BICIAB // Ouaga 2000,12.31428,-1.52901
10706,10706,10629056,BICIAB // Ouahigouya,13.57333,-2.4173400000000003
10714,10714,10629064,BICIAB // Pissy,12.34227,-1.57276
10702,10702,10629037,BICIAB // Pouytenga,12.24591,-0.42954
10718,10718,10629068,BICIAB // Tampouy,12.38963,-1.57645
10712,10712,10629062,BICIAB // Tenkogodo,11.7817,-0.36808
10717,10717,10629067,BICIAB // Wayalghin,12.39701,-1.46854
10708,10708,10629058,BICIAB // Zogona,12.37605,-1.49363
10821,10821,11911409,Ba,12.40679,-1.82679
9916,9916,2363152,Ba,11.28164,-3.9797
9915,9915,2363151,Ba,13.3565,-4.02
9422,9422,2362653,Ba Yangasso,12.03333,-3.2833300000000003
9914,9914,2363150,Baa,12.08333,-3.23333
9913,9913,2363149,Baagou,14.21711,-1.41008
9912,9912,2363148,Babanloua,12.03333,0.51667
9911,9911,2363147,Babayaga,14.166670000000002,0.25
9910,9910,2363146,Babe,12.71291,-1.49363
9909,9909,2363145,Babe,10.28333,-4.01667
9908,9908,2363144,Babeden,12.91667,-0.46667
9907,9907,2363143,Babedo,11.98333,-1.58333
9906,9906,2363142,Babere,12.95,0.06667000000000001
9905,9905,2363141,Babereke,13.14854,-1.03455
9904,9904,2363140,Babie,10.68333,-3.01667
9903,9903,2363139,Babieteoun,9.81667,-2.75
9902,9902,2363138,Babila,13.183329999999998,-0.2878
9901,9901,2363137,Babiou,10.3,-2.86667
9900,9900,2363136,Babirka,13.80723,-0.15631
9899,9899,2363135,Babo,13.84354,-1.90296
9898,9898,2363134,Babolo,10.08333,-4.5666699999999985
9896,9896,2363132,Babonga,13.1065,0.59223
9895,9895,2363131,Babongou,13.44436,0.8963200000000001
9894,9894,2363130,Babou,12.88846,-1.60991
9893,9893,2363129,Babouadi,12.98333,0.43333
9892,9892,2363128,Baboura,10.06667,-3.85
9891,9891,2363127,Babourou,10.1,-4.35
9890,9890,2363126,Bada,13.147670000000002,0.38736
9889,9889,2363125,Badabiessan,11.05,-0.93333
9888,9888,2363124,Badala,11.38551,-4.36295
9887,9887,2363123,Badalougou,12.8,-0.21667
9860,9860,2363096,Badano,13.75583,-2.1221400000000004
9886,9886,2363122,Badara,10.46667,-5.08333
9885,9885,2363121,Badara,10.78333,-3.81667
9884,9884,2363120,Badedsi,12.49728,1.60272
9882,9882,2363118,Badema,11.64701,-4.25823
9883,9883,2363119,Badema,11.18333,-0.31667
9881,9881,2363117,Badet,10.45,-4.1
9880,9880,2363116,Badiere,11.2,-3.16667
9878,9878,2363114,Badinga,12.3527,-4.1995
9879,9879,2363115,Badinga,12.08194,0.6837
9877,9877,2363113,Badini,10.63333,-5.16667
9874,9874,2363110,Badinogo,13.42843,-1.53984
9875,9875,2363111,Badinogo,13.3378,-1.59762
9876,9876,2363112,Badinogo,12.58333,-0.7
9873,9873,2363109,Badinogou,14.0551,-1.64733
9871,9871,2363107,Badnogo,12.13333,-0.5
9872,9872,2363108,Badnogo,11.88333,-1.41667
10977,10977,11948931,Badnogo,12.695,-1.45901
9868,9868,2363104,Badnogo,12.96667,-0.5
9869,9869,2363105,Badnogo I,12.46903,-1.29979
9870,9870,2363106,Badnogo II,12.27074,-1.36982
9867,9867,2363103,Badnongo,13.59939,-0.8696299999999999
9866,9866,2363102,Bado,11.63333,-0.45
9865,9865,2363101,Bado,12.5,0.6
9864,9864,2363100,Badongo,11.11667,-1.16667
9863,9863,2363099,Badongo,11.18333,-0.96667
9862,9862,2363098,Badora,10.3,-3.03333
9861,9861,2363097,Badore,12.98333,-0.13333
9859,9859,2363095,Badougou,11.11667,-0.6166699999999999
9858,9858,2363094,Bafele,14.06579,0.02201
9857,9857,2363093,Bafina,13.68314,-0.97362
9856,9856,2363092,Baforo,11.03333,-3.1
9850,9850,2363086,Baga Dombo,14.129270000000002,-1.59262
9835,9835,2363071,Baga Vendou,14.2536,-1.22023
9855,9855,2363091,Bagaben,12.8,-0.8
9547,9547,2362778,Bagabin,12.5441,-1.46853
10154,10154,2570098,Bagabin,12.10972,-1.51217
9854,9854,2363090,Bagade,13.04169,-0.53465
9853,9853,2363089,Bagadogo,11.9,-1.36667
10106,10106,2570044,Bagadogo,12.07459,-1.35243
9851,9851,2363087,Bagadogo,12.91665,-1.03337
9852,9852,2363088,Bagadogo,12.88333,-0.8333299999999999
9508,9508,2362739,Bagadogo,12.61554,-1.3525200000000002
9849,9849,2363085,Bagadowoeghin,12.2903,-1.79923
9804,9804,2363040,Bagafa,11.76694,-1.84972
9848,9848,2363084,Bagahanba,12.15797,1.81485
9847,9847,2363083,Bagala,12.6,-3.83333
9846,9846,2363082,Bagammssi,11.78333,-1.1
9844,9844,2363080,Bagande,12.85,-0.35
9843,9843,2363079,Bagane,10.96667,-3.05
9841,9841,2363077,Bagane,12.03333,-2.31667
9842,9842,2363078,Bagane,11.2,-3.18333
10309,10309,2570338,Bagarao,12.2581,-1.68688
10829,10829,11911810,Bagaraogo,12.24304,-1.69575
9840,9840,2363076,Bagare,12.91667,-2.6
9839,9839,2363075,Bagare,13.30139,-2.36077
9838,9838,2363074,Bagare,13.45136,-1.50591
9837,9837,2363073,Bagari,12.13152,1.84062
9836,9836,2363072,Bagassi,11.75,-3.3
9834,9834,2363070,Bagawa,14.17775,-0.35556
10139,10139,2570083,Bagayiri,12.47821,-1.27127
9529,9529,2362760,Bagayiri,12.55694,-1.45751
10856,10856,11912835,Bagayiri,12.03007,-1.82346
9833,9833,2363069,Bagbanano,10.68333,-3.15
9832,9832,2363068,Bagbili,12.2,-0.6166699999999999
9845,9845,2363081,Bagemnini,12.01553,-1.55169
9831,9831,2363067,Bageou,12.2,-2.9
1955,1955,2355130,Bagma,12.33649,-1.77232
9828,9828,2363064,Bagou,11.28333,-2.23333
9827,9827,2363063,Bagou,12.31667,0.36667
9826,9826,2363062,Bagouedara,10.08333,-3.91667
9825,9825,2363061,Bagouera,10.0,-3.95
9824,9824,2363060,Bagouoko,13.43353,-2.22092
9823,9823,2363059,Bagouzia,11.28333,-2.18333
9822,9822,2363058,Bagozougou,12.41667,-2.16667
9821,9821,2363057,Bagpelogo,11.71667,-1.21667
9819,9819,2363055,Bagpelogo,11.88333,-1.63333
9820,9820,2363056,Bagpelogo,11.76667,-1.13333
10636,10636,7701508,Bagre,11.4824,-0.51695
10125,10125,2570063,Bagtogdo,12.21691,-1.5671
9817,9817,2363053,Baguera,10.53333,-5.41667
9816,9816,2363052,Baguiomo,12.06667,-2.55
9815,9815,2363051,Baham,13.64477,0.70431
9814,9814,2363050,Bahamaka,13.5148,-1.69252
9813,9813,2363049,Bahanere,12.4,-0.25
9812,9812,2363048,Bahara,12.73333,-0.9
9811,9811,2363047,Bahniaga,13.12259,-0.11855999999999997
9810,9810,2363046,Baimbaiga,11.16667,-0.41667
9808,9808,2363044,Baka,12.26667,-0.41667
9809,9809,2363045,Baka,12.25,-0.41667
9807,9807,2363043,Baka,12.28333,-0.41667
9806,9806,2363042,Bakara,11.2,-3.01667
9805,9805,2363041,Bakaribougou,11.05095,-5.11669
10861,10861,11913424,Baken,12.66446,-1.75633
10305,10305,2570324,Bakiensom,12.30093,-1.61276
9803,9803,2363039,Bakina,10.61667,-3.41667
9802,9802,2363038,Bakloute,13.1641,-0.40688
9798,9798,2363034,Bako,10.3,-4.3
9800,9800,2363036,Bako,12.75628,-1.86863
9801,9801,2363037,Bako,12.28333,-0.71667
9797,9797,2363033,Bako,12.06667,-3.78333
9799,9799,2363035,Bako,12.76498,-1.68475
9796,9796,2363032,Bakogo,11.6,-1.15
9795,9795,2363031,Bakono,10.35,-3.16667
9793,9793,2363029,Bakore,14.07741,-1.59334
9792,9792,2363028,Bakori,10.3,-2.83333
9794,9794,2363030,Bakoronisso,11.88051,-4.22199
9791,9791,2363027,Bakotinga,11.06667,-2.71667
9790,9790,2363026,Bakotou,13.26836,0.5099600000000001
9789,9789,2363025,Bakotourou,11.08333,-2.63333
9788,9788,2363024,Bakou,13.37411,-1.99616
9787,9787,2363023,Bakouani,11.13371,-5.19565
9786,9786,2363022,Bakoui,13.01293,-1.6408200000000002
9785,9785,2363021,Bakoulena,10.33333,-3.1
9784,9784,2363020,Bakoumba,12.25,-0.65
9782,9782,2363018,Bakoumbila,12.65282,-1.24981
9783,9783,2363019,Bakoun,9.96667,-2.9
9781,9781,2363017,Bakoute,10.41667,-4.01667
9780,9780,2363016,Bakoutele,10.46667,-3.93333
9779,9779,2363015,Bakouyo,11.36667,-2.58333
9778,9778,2363014,Bakpara,10.56667,-3.16667
9777,9777,2363013,Bala,14.18194,-0.1466
9776,9776,2363012,Bala,10.11667,-2.91667
9775,9775,2363011,Bala,11.49919,-4.08253
9774,9774,2363010,Balabessanko,12.08333,-0.28333
10162,10162,2570107,Balambalo,12.09597,-1.59083
9773,9773,2363009,Balandagou,13.93753,0.18253
9772,9772,2363008,Balangaboingna,10.93333,0.55
9771,9771,2363007,Balangadi,10.96667,0.55
10379,10379,6786263,Balango,13.67049,-2.47335
9770,9770,2363006,Balanti,10.36667,-3.33333
9769,9769,2363005,Balao,11.85,-2.95
9768,9768,2363004,Balave,12.37588,-4.15681
9767,9767,2363003,Balbara,10.56667,-2.95
7039,7039,2360254,Balbo,12.97996,-1.12627
9766,9766,2363002,Balbou,13.3276,-1.2729
11196,11196,12238259,Balboudi,11.71496,0.0811
9765,9765,2363001,Balbouro,10.83333,-3.3833300000000004
9762,9762,2362998,Bale,13.69675,-0.62502
9763,9763,2362999,Bale,13.37231,0.12435999999999997
9764,9764,2363000,Bale,13.33771,0.094
9761,9761,2362997,Balegogo,10.18333,-4.03333
9760,9760,2362996,Balel,13.73066,-0.26002
9759,9759,2362995,Balemba,13.0678,0.00028
9758,9758,2362994,Balemyoure,12.1,-0.58333
9757,9757,2362993,Balga,12.21568,0.19474
11280,11280,12324472,Balgabe,12.95493,0.72664
9756,9756,2362992,Balingara,10.21667,-3.15
9755,9755,2362991,Baliniar,10.8,-3.21667
9754,9754,2362990,Balinsera,9.85,-3.01667
9753,9753,2362989,Balkuy,12.29979,-1.45207
9752,9752,2362988,Balmen,12.16667,-0.41667
9751,9751,2362987,Balo,12.5137,-1.93309
9750,9750,2362986,Balo,13.0,-2.33333
9749,9749,2362985,Balogo,11.41667,-1.53333
9748,9748,2362984,Baloko,11.15,-0.016669999999999997
9747,9747,2362983,Balole,12.29511,-1.74945
10311,10311,2570340,Balole,12.29611,-1.7461099999999998
9744,9744,2362980,Balongodouo,10.23333,-3.23333
9743,9743,2362979,Balonguen,12.05,-0.2
10278,10278,2570258,Balonguen,12.37128,-1.64431
10163,10163,2570108,Balonguen,12.4333,-1.4369999999999998
9745,9745,2362981,Balonguen,12.04733,-1.50185
9742,9742,2362978,Balonza,13.53885,-2.58652
9741,9741,2362977,Balopo,10.6,-3.23333
9740,9740,2362976,Balourel,14.216029999999998,-1.52778
9739,9739,2362975,Bam,13.36293,-1.51225
9347,9347,2362578,Bam,13.567329999999998,-2.52063
9736,9736,2362972,Bama,11.02336,-5.28951
9734,9734,2362970,Bama,12.0357,-4.3987
9735,9735,2362971,Bama,11.37865,-4.42175
9733,9733,2362969,Bamako,10.5555,-4.45222
9732,9732,2362968,Bamako,10.93333,-3.33333
9730,9730,2362966,Bambakari,14.96038,-0.08676
11145,11145,12217365,Bambambou,12.04463,1.28747
9729,9729,2362965,Bambara,13.35702,-2.79241
9728,9728,2362964,Bambeni,13.33411,0.40325
9727,9727,2362963,Bamble,13.659720000000002,-0.34631
9726,9726,2362962,Bambori,13.43849,0.5010600000000001
9724,9724,2362960,Bamena,9.81667,-2.95
9723,9723,2362959,Bamena,10.46667,-3.31667
9668,9668,2362904,Bamga,13.87295,-0.06625
9722,9722,2362958,Bamga,14.02241,0.07172
9721,9721,2362957,Bamgue,13.68285,-0.20058
9720,9720,2362956,Bamguel,14.26885,-0.79568
9818,9818,2363054,Bamguel Baguel,14.33489,-0.6710699999999999
9108,9108,2362337,Bamguel Bode,14.29263,0.22347
9104,9104,2362333,Bamguel Bodie,14.41,-1.51063
10455,10455,6862568,Bamguel Day,14.7003,-0.8451
8011,8011,2361236,Bamguel Diolo,14.1459,-0.6943
10449,10449,6862562,Bamguel Kobi,14.46629,-0.7901699999999999
9719,9719,2362955,Bamguel Kobi,14.46521,-0.76042
9718,9718,2362954,Bamguel Mana,14.46864,-1.10761
9717,9717,2362953,Bamguel Ndao,14.19927,0.34308
10450,10450,6862563,Bamguel Palol Tchoukoungol,14.48927,-0.78708
2800,2800,2355984,Bamguel Sampoule,14.3941,-1.49459
1483,1483,2354656,Bamguel Terbi,14.219270000000002,0.20592
1476,1476,2354649,Bamguel Terelbi,14.56858,-0.87936
9716,9716,2362952,Bamguil,12.45353,1.78666
9714,9714,2362950,Bamletiede,14.26374,-0.60933
9713,9713,2362949,Bamparou,13.47938,0.60311
9712,9712,2362948,Bamtou,10.3,-4.2333300000000005
9345,9345,2362576,Ban,12.70018,-4.3509400000000005
9633,9633,2362869,Ban,14.08163,-2.44561
9709,9709,2362945,Bana,11.91667,-3.3833300000000004
9711,9711,2362947,Bana,11.23204,-4.47506
9710,9710,2362946,Bana,11.7,-1.01667
9708,9708,2362944,Bana,12.6,-3.4833300000000005
9707,9707,2362943,Bana,13.22924,0.76052
9699,9699,2362935,Bana Sokoura,11.93333,-3.4
9706,9706,2362942,Banahari,12.51667,-0.06667000000000001
2530,2530,2355711,Banamb-Sesso,9.8086,-2.87766
6774,6774,2359987,Banamba-Ipiel,9.82275,-2.87709
9674,9674,2362910,Banamba-Izir,9.81802,-2.88363
6748,6748,2359960,Banamba-Toma,9.8285,-2.88572
9705,9705,2362941,Banana,13.3374,-4.0479
9704,9704,2362940,Banankeledara,11.3178,-4.32849
9703,9703,2362939,Banankoro,11.1793,-5.1071
9702,9702,2362938,Banankoro,11.48067,-4.971030000000002
9701,9701,2362937,Banankoro,13.0309,-3.9732
9700,9700,2362936,Banaorodougou,11.33689,-4.34047
9698,9698,2362934,Banbale,10.31667,-5.28333
9697,9697,2362933,Banbeou,10.6,-3.15
9696,9696,2362932,Banbigouabri,13.39507,-0.14864000000000002
9715,9715,2362951,Banbilari,13.213629999999998,0.17754
9695,9695,2362931,Banbou,11.28333,-3.56667
9693,9693,2362929,Banboulo,10.65,-3.11667
10432,10432,6860080,Banda Radie,14.13804,0.22433000000000006
9692,9692,2362928,Bandaguera,10.13333,-3.5
9691,9691,2362927,Bandakelesso,9.83333,-4.38333
9690,9690,2362926,Bandakoro,10.43333,-4.28333
9689,9689,2362925,Bandalon,12.11667,-2.61667
9688,9688,2362924,Bandania,13.92576,-0.22969
9686,9686,2362922,Bande,11.48333,-3.5333300000000003
9685,9685,2362921,Bandega,13.276,-1.18936
9725,9725,2362961,Bandekiri,13.04359,-0.06919
9684,9684,2362920,Bandeo-Napone,12.04605,-2.52094
9683,9683,2362919,Bandiedaga,13.87521,0.25268
9682,9682,2362918,Bandikirini,12.76667,0.4
9681,9681,2362917,Bandio,11.68333,-3.26667
9680,9680,2362916,Bandiosi,13.32055,0.71186
9679,9679,2362915,Bandoue,12.03333,-3.05
9678,9678,2362914,Bandougou,10.96667,-4.86667
9677,9677,2362913,Bane,11.15,-0.5
9676,9676,2362912,Bane,11.59278,-0.34833000000000003
9675,9675,2362911,Banebira,10.46667,-3.5333300000000003
9330,9330,2362561,Banega,11.69902,-2.60785
10860,10860,11913349,Banembanto,12.07687,-1.56778
9673,9673,2362909,Banfora,10.63333,-4.76667
10642,10642,7730463,Banfora Airport,10.68945,-4.72743
9671,9671,2362907,Banfoulague,11.14056,-4.73656
9670,9670,2362906,Banga,12.18333,-3.3
9669,9669,2362905,Banga,13.187,0.8227399999999999
10398,10398,6822236,Banga Bale,13.28065,0.23868000000000006
9666,9666,2362902,Banga Boulla,13.57083,0.7239399999999999
9667,9667,2362903,Bangaba,13.35763,0.31151
10457,10457,6862570,Bangao,14.763229999999998,-0.19523
9665,9665,2362901,Bangao,14.77004,-0.25649
9664,9664,2362900,Bangao,14.76667,-0.18333
10671,10671,8614817,Bangao,14.772329999999998,-0.23759
10461,10461,6862574,Bangao,14.9228,-0.3238
9663,9663,2362899,Bangare,12.85,-0.35
9662,9662,2362898,Bangari,14.32439,-1.48939
9660,9660,2362896,Bangasse,13.194170000000002,-1.0894
9661,9661,2362897,Bangasse,13.09933,-2.59479
9658,9658,2362894,Bangassi,13.2357,-3.9798
9659,9659,2362895,Bangassi,12.77468,-4.18456
9632,9632,2362868,Bangassi,13.1577,-3.2782
9657,9657,2362893,Bangassoko,13.31186,-2.91375
9636,9636,2362872,Bangassomba,13.139879999999998,-2.19273
10814,10814,11911127,Bangassompissen,12.43784,-1.80383
9656,9656,2362892,Bangataka,13.98489,-0.40437
9655,9655,2362891,Bangay,13.01977,-0.30684
9654,9654,2362890,Bangbe Terbi,14.25969,-0.05749
9653,9653,2362889,Bangel,13.27069,0.4154
9638,9638,2362874,Bangma,12.15895,-1.61871
11127,11127,12199927,Bangmiougou,13.49159,-1.12473
9649,9649,2362885,Bango,10.55,-4.36667
9651,9651,2362887,Bango,13.32289,-1.5294
9650,9650,2362886,Bango,13.662679999999998,-2.54466
9648,9648,2362884,Bango,11.4111,-4.36651
9647,9647,2362883,Bango,13.62225,-2.95427
9646,9646,2362882,Bango Bero,14.23333,0.28333
9645,9645,2362881,Bango Mossi,13.65,-2.53333
9644,9644,2362880,Bangonadji,14.68675,-0.35011
9643,9643,2362879,Bangoue,10.41667,-3.81667
9642,9642,2362878,Bangozougou,12.16667,-2.43333
9551,9551,2362782,Bangre,12.15479,-1.32843
9641,9641,2362877,Bangre,12.99386,-1.4125299999999998
11016,11016,11980312,Bangressen,12.19993,-1.20965
9640,9640,2362876,Bangrezanga,12.25,-0.81667
9830,9830,2363066,Bangrin,12.5295,-1.36242
9639,9639,2362875,Banguel Dao,14.22025,-0.14764000000000002
11023,11023,11980327,Banguesom,12.48665,-1.16179
9652,9652,2362888,Banguessom,12.05153,-1.94536
9637,9637,2362873,Banguessoum,12.42156,-1.79882
9635,9635,2362871,Banguiou,11.68333,-3.16667
9634,9634,2362870,Banguissame,11.76667,-1.16667
10761,10761,11257297,Banh,14.083,-2.45
9326,9326,2362557,Banh,13.79265,-2.70945
9631,9631,2362867,Banhie,10.26667,-2.88333
9630,9630,2362866,Banhounou,10.26667,-3.93333
8377,8377,2361603,Bani,13.72139,-0.17222
9627,9627,2362863,Bani,14.01675,-1.70111
9628,9628,2362864,Bani,13.64189,-1.49266
9626,9626,2362862,Bani,14.21884,-2.57727
9629,9629,2362865,Bani,13.36667,-0.26667
9625,9625,2362861,Bania,14.572,-1.8566
9624,9624,2362860,Baniaba,13.36377,0.7034600000000001
9623,9623,2362859,Baniara,10.2,-3.15
9622,9622,2362858,Banika,13.51716,0.406
11214,11214,12253551,Banikani,14.20486,-1.6756400000000002
9621,9621,2362856,Baniossori,11.36667,-2.53333
9620,9620,2362855,Baniotenga,12.86667,-2.71667
9619,9619,2362854,Baniou,13.00115,-2.14146
9618,9618,2362853,Banipoule,10.58333,-2.96667
9617,9617,2362852,Baniri,11.21667,-3.36667
9616,9616,2362850,Bankandi,11.25,-3.06667
9615,9615,2362849,Bankatatougou,12.28969,1.05953
10962,10962,11948025,Bankiemde,12.89471,-1.0588
9614,9614,2362848,Bankoni,11.63333,-3.7
9613,9613,2362847,Bankorosso Gamadou,12.31667,-3.1
9612,9612,2362845,Bankouma,13.2527,-4.1892
9611,9611,2362844,Bankouman,11.91667,-3.56667
9609,9609,2362842,Bankoumani,13.0657,-4.25884
9610,9610,2362843,Bankoumani,12.61667,-3.91667
9608,9608,2362841,Bankoura,10.16667,-3.15
9607,9607,2362840,Bankui,12.61667,-3.56667
9606,9606,2362839,Banlo,10.58333,-3.23333
9605,9605,2362838,Banmbe,12.0194,-4.6119
9604,9604,2362837,Banmbili,12.96667,0.3
9603,9603,2362836,Banmkok Kyaro,13.15642,0.59675
9602,9602,2362835,Banmwanou,12.3,0.73333
9601,9601,2362834,Bannho,13.05974,0.02302
9600,9600,2362833,Bannsyaga,13.01511,0.50275
10290,10290,2570280,Banogo,12.30456,-1.50694
9599,9599,2362832,Banogo,10.6,-4.15
9598,9598,2362831,Banon,11.18333,-1.1
9596,9596,2362828,Banou,12.16667,-3.2
9597,9597,2362829,Banou,11.76667,-3.36667
9591,9591,2362823,Banou Yao,11.68333,-3.36667
9594,9594,2362826,Banouila,12.91667,-0.9
9593,9593,2362825,Banoumba,12.31667,-3.03333
9592,9592,2362824,Banounou,12.81667,-2.03333
9590,9590,2362822,Banpole,13.344170000000002,-0.56157
9589,9589,2362821,Banpon,10.53333,-2.96667
9588,9588,2362820,Banpourounga,13.46278,-0.15748
9586,9586,2362818,Bansigui,13.247520000000002,-0.6825600000000001
9585,9585,2362817,Banta,9.98333,-3.5333300000000003
9584,9584,2362816,Bante,14.64466,-1.41037
9583,9583,2362815,Bantogdo,12.43923,-1.94629
9582,9582,2362814,Bantole,12.48333,-2.41667
9581,9581,2362813,Bantouani,12.53485,1.51951
9580,9580,2362812,Banwomo,12.2488,2.02323
9579,9579,2362811,Banzani,11.3931,-5.23796
9578,9578,2362810,Banzo,11.32668,-4.7995199999999985
9577,9577,2362808,Bao,13.0,-3.21667
9576,9576,2362807,Baodogo,13.620029999999998,-2.5085
10242,10242,2570221,Baoguen,12.49871,-1.59044
10049,10049,2569984,Baoguen,12.23924,-1.6931200000000002
9575,9575,2362806,Baola,13.72809,-0.70922
9574,9574,2362805,Baongo,13.71667,-2.0
9573,9573,2362804,Baongue,13.7654,-1.71263
10297,10297,2570288,Baonnore,12.30988,-1.61181
9572,9572,2362803,Baopendi,12.76667,1.1
9571,9571,2362802,Baoudoumboen,13.05354,-2.63336
9570,9570,2362801,Baouene,14.02819,-2.40935
9569,9569,2362800,Baougen,12.31667,-2.16667
9568,9568,2362799,Baougou Pore,13.97162,-0.44204
9567,9567,2362798,Baouiga,11.61667,-1.65
11159,11159,12232553,Bapiema,11.77683,1.25804
9566,9566,2362797,Bapla,10.86667,-3.26667
9565,9565,2362796,Baplakola,10.91667,-3.15
11067,11067,12087357,Baporayiri,9.8277,-2.74399
9418,9418,2362649,Bar Yiri,12.02056,-1.88519
9563,9563,2362794,Bara,12.9914,-4.25
9562,9562,2362793,Baraboule,14.20655,-1.85314
9561,9561,2362792,Baraboule,14.20807,-0.74058
9560,9560,2362791,Barakpere,10.43333,-3.18333
9559,9559,2362790,Barakui,12.55,-3.61667
9558,9558,2362789,Barakyemde Bangari,13.66021,-0.8051
9557,9557,2362788,Barakyengo,13.42401,0.8950600000000001
9556,9556,2362787,Barale,12.88724,-1.05312
9555,9555,2362786,Baraleongo,11.98333,-1.48333
9554,9554,2362785,Baraliyiri,12.01751,-1.82561
9514,9514,2362745,Barama,12.4974,-1.7379099999999998
9553,9553,2362784,Baramiougou,13.53994,-1.06045
9552,9552,2362783,Barana,12.05424,-1.6406
9550,9550,2362781,Barani,13.1691,-3.8899
10741,10741,11205452,Barani Department,13.168120000000002,-3.89101
9549,9549,2362780,Barao,13.89383,-0.66205
9548,9548,2362779,Baraptenga,12.8,-0.66667
9546,9546,2362777,Bardyiwari,12.73606,1.4186
9544,9544,2362775,Bare,11.81941,-4.2846199999999985
9545,9545,2362776,Bare,11.08091,-4.10735
11287,11287,12358466,Barelgo,13.63945,-2.29144
9829,9829,2363065,Barelogo,13.5757,-2.33449
9543,9543,2362774,Baren,12.6,-0.38333
9541,9541,2362772,Barga,13.79332,-2.25502
9542,9542,2362773,Barga,13.61735,-0.73785
9540,9540,2362771,Bargabouga,13.64569,0.6641199999999999
9538,9538,2362769,Barganse,11.18463,-0.50643
11264,11264,12324184,Barganse-Peulh,11.18601,-0.4905600000000001
9539,9539,2362770,Bargare,13.888379999999998,-0.15374000000000002
9537,9537,2362768,Bargo,12.73333,-2.05
9536,9536,2362767,Bargo,13.41506,-1.50486
9535,9535,2362766,Bargo,14.15324,-2.1603
9534,9534,2362765,Bari,12.29373,1.47212
9531,9531,2362762,Baribsi,13.33411,-1.7179799999999998
9532,9532,2362763,Baribsi,12.85,-2.45
9533,9533,2362764,Baribsi,12.48333,-2.05
9530,9530,2362761,Bariera,10.48333,-3.1
10996,10996,11962664,Barimagou,12.38888,1.35533
9528,9528,2362759,Baringira,10.43333,-3.01667
9527,9527,2362758,Baripoa,12.21495,1.85839
9526,9526,2362757,Barkana,13.62391,-1.70768
9525,9525,2362756,Barkea,14.02673,-0.16285
9521,9521,2362752,Barkouitenga,12.63486,-1.31644
9524,9524,2362755,Barkoundouba,12.67048,-1.19302
9523,9523,2362754,Barkoura,10.38333,-3.35
9522,9522,2362753,Barkoura,10.15,-3.25
9520,9520,2362751,Barla,12.68333,-2.51667
9519,9519,2362750,Barlara,13.30116,-0.84849
9518,9518,2362749,Barle,12.55,-0.51667
9517,9517,2362748,Barle,13.10798,-1.05832
9516,9516,2362747,Barle,13.1355,-0.79806
9515,9515,2362746,Barle,13.30413,-1.7209900000000002
9513,9513,2362744,Barma,13.23887,-2.0508900000000003
9512,9512,2362743,Barnoro,12.25,-0.11667
9511,9511,2362742,Baro,10.51667,-3.23333
9509,9509,2362740,Barogo,12.55,-0.96667
9510,9510,2362741,Barogo,12.41584,-1.41342
10817,10817,11911132,Barouli,12.45224,-1.7602799999999998
10900,10900,11915106,Barpelaga,12.69663,-1.98749
11129,11129,12204984,Barpoa,12.21395,1.87498
10801,10801,11900646,Barrage Numero Deux,12.38904,-1.534
10802,10802,11900647,Barrage Numero Trois,12.38883,-1.50903
10800,10800,11900645,Barrage Numero Un,12.38124,-1.56479
10151,10151,2570095,Barrage de Loumbila,12.49173,-1.40305
11058,11058,11980371,Barrage de Ziga,12.49169,-1.08209
10434,10434,6860082,Barrague,14.14459,0.055470000000000005
9506,9506,2362737,Barsa,13.09694,-1.62721
9505,9505,2362736,Barsabologo,13.10452,-1.89747
10675,10675,9035704,Barsalogho Airport,13.39962,-1.06111
9504,9504,2362735,Barsalogo,13.41389,-1.0558299999999998
9503,9503,2362734,Barsse,11.61667,-1.26667
9502,9502,2362733,Bartenga,12.78562,-1.37628
9501,9501,2362732,Bartera,10.28333,-3.43333
9500,9500,2362731,Bartibougou,12.87292,0.79375
9499,9499,2362730,Bartibougou,12.88333,0.8
9498,9498,2362729,Bartorogo,11.86667,-1.51667
9497,9497,2362728,Bartyaga,12.4199,1.7548400000000002
9496,9496,2362727,Baryou,12.23333,-0.43333
9495,9495,2362726,Basabega,12.21667,0.13333
9494,9494,2362725,Basambougou,12.26667,0.1
9493,9493,2362724,Basanam,12.85,-2.8
9492,9492,2362723,Basantenga,12.85,-2.55
9489,9489,2362720,Basbedo,12.61627,-1.15562
9490,9490,2362721,Basbedo,12.76667,-2.33333
9491,9491,2362722,Basbedo,11.55,-1.01667
9488,9488,2362719,Baseotenga,12.88333,-2.75
9487,9487,2362718,Basgana,11.61667,-1.1
9485,9485,2362716,Basinene,12.81667,-2.78333
9484,9484,2362715,Basinga,12.6,-2.41667
9483,9483,2362714,Baskondo,13.43644,-1.31769
9482,9482,2362713,Baskorma,13.1674,-2.21204
9481,9481,2362712,Baskouda,13.31851,-1.9362
10291,10291,2570281,Baskoudre,12.25302,-1.53065
9479,9479,2362710,Baskounda,13.13727,-1.3546200000000002
9480,9480,2362711,Baskoure,12.76322,-1.03743
9478,9478,2362709,Baskoure,12.16111,-0.26722
9477,9477,2362708,Baskoure,12.21667,-0.31667
9476,9476,2362707,Basma,12.88614,-1.55406
10922,10922,11947728,Basmiam,12.66407,-1.35855
9474,9474,2362705,Basnere,13.60631,-0.88202
9475,9475,2362706,Basnere,13.12882,-1.4142
11041,11041,11980345,Basnere,12.1008,-1.20206
10949,10949,11948012,Basnere,12.99735,-1.31987
9460,9460,2362691,Basnere,13.65102,-2.30017
10161,10161,2570106,Basnere,12.43557,-1.44873
9473,9473,2362704,Bassan,11.3,-1.4
9472,9472,2362703,Bassan,13.0837,-3.1726
9471,9471,2362702,Bassana,11.91667,-3.33333
9470,9470,2362701,Bassanga,13.55184,-2.10705
9469,9469,2362700,Bassangoro,10.4,-5.33333
9466,9466,2362697,Bassaouassa,13.62882,-2.50532
9468,9468,2362699,Bassata,14.31731,-1.17506
9467,9467,2362698,Bassawarga,11.71667,-1.7
9465,9465,2362696,Basse,13.70578,-1.64985
9464,9464,2362695,Bassebetenga,13.03468,-2.7214400000000003
9463,9463,2362694,Basseko,12.3881,-1.63121
9462,9462,2362693,Basseloko,11.51667,-0.95
9461,9461,2362692,Bassema,13.252820000000002,-1.08532
9453,9453,2362684,Bassemyam,12.20921,-1.53977
9459,9459,2362690,Bassera,10.76667,-3.41667
9458,9458,2362689,Bassi,13.325220000000002,-2.24533
10654,10654,8288557,Bassi Department,13.2846,-2.2046
9457,9457,2362688,Bassia,13.58969,-0.81233
10963,10963,11948032,Bassiame,12.88532,-1.3727
9456,9456,2362687,Bassibedo,11.73333,-0.16667
9486,9486,2362717,Bassieri,12.866,0.342
9455,9455,2362686,Bassinam,13.19374,-2.36194
9454,9454,2362685,Bassinsa,11.18333,-2.28333
10498,10498,6873963,Bassit,14.24136,-1.25161
11010,11010,11980298,Bassiyam,12.08233,-1.23422
8303,8303,2361529,Bassomin,12.48653,-1.30024
9452,9452,2362683,Bassomkoukouri,12.63333,-0.6333300000000001
9451,9451,2362682,Basson,11.88333,-3.33333
3490,3490,2356677,Bassotenga,12.18751,-1.84282
9450,9450,2362681,Basszaida,13.29155,-2.38647
9449,9449,2362680,Bastioua,12.73333,-2.51667
9447,9447,2362678,Basziri,12.65,-2.21667
9448,9448,2362679,Basziri,12.20157,-1.84585
9446,9446,2362677,Batabogou,13.62147,0.28729
9445,9445,2362676,Batagne,12.51102,1.7303099999999998
9444,9444,2362675,Batakolo,12.15,-2.56667
9443,9443,2362674,Batanga,13.457870000000002,-1.51715
9442,9442,2362673,Batenga,12.67216,-1.06543
9441,9441,2362672,Batiara,11.20098,-2.98138
9439,9439,2362670,Batibogou,13.70579,0.27493
9440,9440,2362671,Batibogou,13.02549,0.83962
9438,9438,2362669,Batie,9.88333,-2.91667
9437,9437,2362668,Batie Ble,10.33333,-2.95
9434,9434,2362665,Batie Nord,10.39836,-2.87091
9436,9436,2362667,Batiele,11.11667,-3.16667
9435,9435,2362666,Batieni,11.36667,-3.25
9433,9433,2362664,Batinga,11.9,-1.45
9432,9432,2362663,Batiti,11.85,-3.16667
9431,9431,2362662,Batiyiri,12.05,-2.18333
9430,9430,2362661,Batondo,12.11667,-2.58333
9429,9429,2362660,Batono,12.73333,-2.41667
9428,9428,2362659,Batyemina,13.1202,0.3327
9427,9427,2362658,Baviguekaha,10.43333,-5.3
9426,9426,2362657,Bavile,12.1,-2.68333
9425,9425,2362656,Bawango,12.93333,-0.65
9424,9424,2362655,Bayalo,12.36667,-2.51667
9423,9423,2362654,Bayalongo,12.8,-2.36667
9421,9421,2362652,Baye,12.05932,-4.0780699999999985
9420,9420,2362651,Bayeldo,9.76667,-3.03333
9419,9419,2362650,Bayendefoulgo,13.41472,-1.4784700000000002
9417,9417,2362648,Baylare,14.16208,-1.80299
9416,9416,2362647,Bazan,12.26667,-2.06667
9415,9415,2362646,Bazanwara,11.4,-1.95
9414,9414,2362645,Bazega,11.61667,-1.4
9413,9413,2362644,Bazega Province,11.91667,-1.5
9412,9412,2362643,Bazilakoa,11.8,-2.13333
9411,9411,2362642,Bazoule,12.31929,-1.70951
9410,9410,2362641,Beanna,11.8,-0.08333
9408,9408,2362639,Bebda,9.96667,-3.05
9407,9407,2362638,Bebere,13.42284,-1.09529
9406,9406,2362637,Beboula,9.93333,-3.1
9409,9409,2362640,Bebtenga,12.13676,-1.3214
9405,9405,2362636,Bechikoperou,12.45,-2.71667
9404,9404,2362635,Bedari,11.3,-1.28333
9403,9403,2362634,Bedougou,10.46667,-5.45
9402,9402,2362633,Bedyame,12.21667,-0.86667
10540,10540,6874032,Beed,14.16707,-1.36083
9401,9401,2362632,Befala,12.15,-3.1
9400,9400,2362631,Befasin,13.73008,0.31377
9399,9399,2362630,Befassi,13.07556,0.27182
10395,10395,6807498,Befassi,13.263379999999998,0.14647000000000002
9398,9398,2362629,Befoara,12.91667,-0.05
9397,9397,2362628,Begeuntiga,13.107779999999998,-1.41346
9396,9396,2362627,Begouabena,11.8,-0.38333
9395,9395,2362626,Beguedo,11.78083,-0.7338899999999999
9394,9394,2362625,Beguemtigue,14.06894,-2.2017
10245,10245,2570224,Beguentigue,12.46884,-1.55266
9393,9393,2362624,Begueumdre,13.32172,-1.34441
9392,9392,2362623,Beguintigui,13.99685,-0.07503
9391,9391,2362622,Beiga,14.58585,-0.13760999999999998
9390,9390,2362621,Beka,11.19111,-0.58778
9389,9389,2362620,Bekorologo,10.86667,-5.2333300000000005
9388,9388,2362619,Bekoura,10.31667,-3.5166699999999995
9387,9387,2362618,Bekui,12.13333,-3.65
9386,9386,2362617,Bekuy,11.63333,-3.88333
10471,10471,6873920,Bela Elodie,14.75,-1.1779
9384,9384,2362615,Belaherla,11.11667,-0.36667
9382,9382,2362613,Belarkare,10.71667,-2.96667
9381,9381,2362612,Beldiabe,14.757,-0.12251
9379,9379,2362610,Bele,12.83993,-1.63918
9378,9378,2362609,Bele,13.04096,-1.64373
9380,9380,2362611,Bele,10.65,-2.98333
9377,9377,2362608,Bele Amardiare,14.5458,-1.8044
9376,9376,2362607,Bele Banguia,14.75,0.23333
9375,9375,2362606,Bele Bindiri,14.65271,-1.09438
10485,10485,6873948,Bele Yanga,14.33435,-1.55072
9374,9374,2362605,Belediam,14.44154,-0.59964
9385,9385,2362616,Belegre,12.03881,-1.37046
9373,9373,2362604,Beleguenga,13.85306,-1.10579
9372,9372,2362603,Belehede,14.0815,-1.29076
9370,9370,2362601,Belel,14.36084,-0.3808
9371,9371,2362602,Belel,12.41879,1.50981
9369,9369,2362600,Belel Demtou,14.34411,-1.09463
9368,9368,2362599,Belembaoguen,12.13333,-0.06667000000000001
9367,9367,2362598,Belembouliguen,12.15,-0.06667000000000001
9366,9366,2362597,Belga,12.88333,-0.48333
9364,9364,2362595,Belgou,14.31001,0.13294
9184,9184,2362414,Belhourou,14.30488,-1.05436
10595,10595,6913776,Beli,15.048329999999998,-0.50356
9363,9363,2362594,Beli,14.9889,-0.3402
10416,10416,6860064,Beli,14.86215,0.19828
9361,9361,2362592,Beli Baba,14.67918,-1.04161
9362,9362,2362593,Beli Baba,14.74416,-1.05574
9360,9360,2362591,Belikya,13.26688,0.5627800000000001
9358,9358,2362589,Belinkora,10.43333,-3.25
9357,9357,2362588,Belladiaoudi,14.5812,-0.1968
9356,9356,2362587,Bellapoum,12.66667,-2.51667
9354,9354,2362585,Bellare,13.98901,0.04943
9383,9383,2362614,Bellare,14.1862,0.2362
9355,9355,2362586,Bellare,13.970020000000002,0.01343
9353,9353,2362584,Bellare Maga,13.96759,-0.01322
9352,9352,2362583,Bellare Malbo,13.89275,-0.17819000000000002
9351,9351,2362582,Belliata,14.28433,-0.10695
9365,9365,2362596,Belogo,13.75685,-0.57084
9350,9350,2362581,Belsa Kouy,14.08387,-1.27517
9349,9349,2362580,Belwo,12.6803,2.0912
9348,9348,2362579,Bema,13.1108,-2.03758
9251,9251,2362482,Bembela,13.55423,-2.48845
9346,9346,2362577,Bemkoudougou,13.06907,-2.03846
9344,9344,2362575,Bena,12.07719,-4.18806
9343,9343,2362574,Bena,12.0587,-4.574
9342,9342,2362573,Bena,12.01667,-3.5333300000000003
9341,9341,2362572,Bena,11.15,-1.63333
9340,9340,2362571,Benanso,12.35,-2.46667
9339,9339,2362570,Benatenga,11.81667,-0.38333
9338,9338,2362569,Benavero,11.06667,-2.16667
9687,9687,2362923,Bendatoega,12.46692,-1.6317
9318,9318,2362549,Bendogo,12.78579,-1.6639
9332,9332,2362563,Bendogo,13.166620000000002,-1.30262
9333,9333,2362564,Bendogo,13.04189,-1.74111
9334,9334,2362565,Bendogo,13.0827,-1.53946
9237,9237,2362468,Bendogo,12.8433,-1.09552
9336,9336,2362567,Bendogo,13.04524,-1.23717
9337,9337,2362568,Bendogo,12.39508,-1.45425
9335,9335,2362566,Bendogo,13.04728,-1.39373
10893,10893,11913926,Bendogo,12.88011,-1.94403
9331,9331,2362562,Bene,13.71609,-2.32323
10564,10564,6893650,Bene,14.1685,-2.395
9329,9329,2362560,Benere,14.1231,-0.9685
9328,9328,2362559,Bengre,12.13333,-0.65
9327,9327,2362558,Bengueden,12.51667,-0.38333
9325,9325,2362556,Beni,11.16667,-2.93333
9323,9323,2362554,Benie Tanga,13.74602,-2.68547
9324,9324,2362555,Beniene,11.91667,-1.95
9322,9322,2362553,Beninsera,9.81667,-3.05
9321,9321,2362552,Beniou,11.31667,-1.95
9320,9320,2362551,Bennse,13.10398,-1.96963
9319,9319,2362550,Benogo,12.52281,-1.4468299999999998
9317,9317,2362548,Beongourgou,12.38794,0.48498
9316,9316,2362547,Beotenga,13.03863,-1.08673
9315,9315,2362546,Bequele,10.6,-3.733330000000001
9314,9314,2362545,Beranga,13.11035,-2.12814
9313,9313,2362544,Bere,11.83333,-1.15
9312,9312,2362543,Bereba,11.6281,-3.67843
9311,9311,2362542,Beregadougou,10.76667,-4.75
9310,9310,2362541,Berekwe,13.16786,-4.14652
9309,9309,2362540,Berenkui,12.46667,-3.83333
9308,9308,2362539,Bersaga,12.01667,0.55
9307,9307,2362538,Besetenga,12.73333,-2.73333
9306,9306,2362537,Besse,13.04272,-0.71409
9305,9305,2362536,Besseko,10.2,-3.91667
9304,9304,2362535,Bestigre,12.2,-0.53333
9303,9303,2362534,Beta,12.64771,-1.10288
9302,9302,2362533,Betare,11.43333,-1.36667
9301,9301,2362532,Betiessan,11.06667,-1.91667
9300,9300,2362531,Beto,11.76667,-2.28333
9299,9299,2362530,Beun,11.26667,-2.26667
9298,9298,2362529,Beybey,13.96856,-0.05505
9297,9297,2362528,Bezena,11.33333,-2.66667
9296,9296,2362527,Bial,12.0333,-4.3572
9295,9295,2362526,Biassaga,12.0004,-4.29411
9294,9294,2362525,Biba,12.81042,-2.96601
9293,9293,2362524,Bibgou,12.6,0.35
9292,9292,2362523,Bibiou,12.9,-2.53333
9291,9291,2362522,Bichlinore,13.16317,-0.4813
9290,9290,2362521,Bida,13.1726,-4.0778
9289,9289,2362520,Bidi,13.90779,-2.4854700000000003
9288,9288,2362519,Bidi,14.10365,-2.4980900000000004
9287,9287,2362518,Bidi,14.371720000000002,-0.33354
9286,9286,2362517,Bidibawoy,13.93688,-2.4985
9285,9285,2362516,Bidiga,11.8,-0.51667
9284,9284,2362515,Bidigou,12.53013,-1.65547
9283,9283,2362514,Biedogo,11.88333,-1.46667
9282,9282,2362513,Bieha,11.06,-1.82139
9281,9281,2362512,Bielfadouo,10.03333,-3.2
9280,9280,2362511,Bielmera,9.98333,-3.11667
9279,9279,2362510,Biengane,11.05,-2.86667
9278,9278,2362509,Biforo,11.91667,-3.13333
9277,9277,2362508,Bigou,11.36667,0.81667
9276,9276,2362507,Bigue,13.81477,-0.92526
9275,9275,2362506,Biguissi,12.95742,-1.1247
9274,9274,2362505,Bihoun,11.7,-3.58333
10294,10294,2570284,Bika,12.32194,-1.58354
9273,9273,2362504,Bikatawa,13.44495,-1.31536
9272,9272,2362503,Bilakoka,13.85735,-0.41113
9271,9271,2362502,Bilakongo,12.16667,-3.15
9270,9270,2362501,Bilambyoubile,12.2,-0.06667000000000001
9269,9269,2362500,Bilanbar,11.08333,-2.98333
9267,9267,2362498,Bilanga,12.54652,-0.02438
9268,9268,2362499,Bilanga,12.54449,-0.03414
9266,9266,2362497,Bilanga Yanga,12.45822,-0.10197
9265,9265,2362496,Bilanguen,12.13333,-0.03333
9264,9264,2362495,Bilatio,11.38333,-2.65
9263,9263,2362494,Bilbale,10.95,-3.06667
10047,10047,2569982,Bilbalgo,12.1624,-1.37838
10789,10789,11900537,Bilbalogho,12.3626,-1.5311
9262,9262,2362493,Bilbalogo,11.6825,-1.16417
9261,9261,2362492,Bilbalogo,11.91667,-1.33333
10214,10214,2570191,Bilbalogo,12.35989,-1.40812
11009,11009,11980297,Bilbalogo,12.08565,-1.31137
9260,9260,2362491,Bilel Kedagou,14.00375,-1.2364
10530,10530,6874020,Bilel Modi,14.10063,-1.28798
9255,9255,2362486,Bilgo,12.53371,-1.68332
9259,9259,2362490,Bilgou,13.18086,0.22712
9258,9258,2362489,Bilibalogo,13.56604,-0.98299
9257,9257,2362488,Biliga,13.34038,-1.37216
6297,6297,2359504,Biliguiri,12.00396,-1.19469
9256,9256,2362487,Bilina,12.45,0.06667000000000001
9359,9359,2362590,Bilinga,13.41148,-2.37198
9254,9254,2362485,Bilogotenga,12.51667,-0.91667
9253,9253,2362484,Bilougou,13.11681,0.20057
9252,9252,2362483,Bimabideni,12.66664,2.12671
9250,9250,2362481,Bime,11.65,-0.33333
9249,9249,2362480,Bin,12.03333,-4.13333
9248,9248,2362479,Bina,12.78333,0.7
9247,9247,2362478,Bina,12.13333,-3.81667
9246,9246,2362477,Binadeni,12.0216,0.26404
9245,9245,2362476,Binbelinko,9.48333,-2.75
9244,9244,2362475,Binde,11.75417,-1.09444
9243,9243,2362474,Bindere,13.619929999999998,-0.17745
9242,9242,2362473,Bindere,13.60235,-0.18347
9238,9238,2362469,Bindogo,12.75798,-1.01629
9241,9241,2362472,Bindogo,12.05,-2.01667
9240,9240,2362471,Bindogo,12.58333,-0.96667
9239,9239,2362470,Bindogo,12.65,-0.75
9236,9236,2362467,Bindoro,12.8,-0.8333299999999999
9235,9235,2362466,Bindougou,12.46667,-3.6
9234,9234,2362465,Bindowe,11.15738,-4.09265
9233,9233,2362464,Binga,13.02938,0.57415
9232,9232,2362463,Bingali,10.31667,-3.61667
9231,9231,2362462,Bingassa,10.43333,-3.55
9230,9230,2362461,Bingbele,11.4153,-4.33793
9229,9229,2362460,Bingbema,11.54984,-4.57639
9225,9225,2362456,Bingo,13.16562,-2.2375700000000003
9226,9226,2362457,Bingo,12.99545,-1.13255
9228,9228,2362459,Bingo,11.0,-0.53333
9227,9227,2362458,Bingo,12.30092,-1.8348
10020,10020,2569953,Bingo,12.22913,-1.44506
10908,10908,11915195,Bingo,12.59531,-1.96944
9224,9224,2362455,Binguel,13.534820000000002,0.77027
9223,9223,2362454,Binguel,13.64506,0.4548
9222,9222,2362453,Binguel,13.92775,-0.18998
9221,9221,2362452,Binguel Balebile,14.17193,-0.6848
9220,9220,2362451,Binguel Dafedji,14.55745,-0.90839
9219,9219,2362450,Binguel Dafedji,14.6026,-0.9308
9218,9218,2362449,Bini,10.55,-3.733330000000001
9217,9217,2362448,Bini,13.75831,-1.19485
9216,9216,2362447,Biniko,10.56667,-3.85
9215,9215,2362446,Binjo,10.46667,-3.03333
10495,10495,6873960,Binkata,14.42319,-1.45134
9214,9214,2362445,Binkili,11.3,-2.93333
9213,9213,2362444,Binnguedougou,10.4,-5.11667
10968,10968,11948917,Binogo,12.86012,-1.24193
9212,9212,2362443,Binogo,12.36667,-0.65
9211,9211,2362441,Binsboumbou,11.86667,-1.23333
9210,9210,2362440,Binsegue,12.8,-0.91667
9209,9209,2362439,Binsigue,12.96667,-0.73333
9208,9208,2362438,Binsteguere,11.78333,-1.36667
9207,9207,2362437,Binte,10.75,-3.6
9206,9206,2362436,Binvar,10.95,-2.98333
9205,9205,2362435,Bion,11.65,-1.23333
9204,9204,2362434,Biongo,12.76667,-2.06667
9203,9203,2362433,Bira,13.21865,0.8624299999999999
9201,9201,2362431,Bira Gondogo,13.63469,-2.86037
9202,9202,2362432,Birabodo,12.50915,-1.95246
9200,9200,2362430,Bire,14.01451,-2.52763
9199,9199,2362429,Birgou,12.2,0.43333
9198,9198,2362428,Birgui,12.94721,-1.13596
9197,9197,2362427,Birgui,13.02026,-1.13916
9196,9196,2362426,Birgui,13.60573,-0.54398
9195,9195,2362425,Biri,10.4,-3.01667
9194,9194,2362424,Biri,13.22099,-1.26735
9193,9193,2362423,Biribena,13.566529999999998,0.51582
9191,9191,2362421,Birigui Teyga,14.1035,-0.92973
9192,9192,2362422,Biriguima,11.95,-1.7
9190,9190,2362420,Birkinao,10.65,-3.3
9189,9189,2362419,Birniolpori,12.63727,1.90991
9188,9188,2362418,Biron Bobo,12.56667,-3.63333
9187,9187,2362417,Biron Marka,12.58333,-3.63333
9186,9186,2362416,Birou,12.73333,-2.58333
9185,9185,2362415,Birou,13.30097,-1.65661
9182,9182,2362412,Bisiga,12.15,-2.06667
9181,9181,2362411,Bisigen,12.45,-2.3
9179,9179,2362409,Biska,12.15,-0.18333
9178,9178,2362408,Bisma,12.95,-2.61667
9177,9177,2362407,Bisnaba,12.55,-0.66667
9175,9175,2362405,Bispalga,13.1746,-1.45049
9174,9174,2362404,Bissa,11.91667,-3.45
9173,9173,2362403,Bissan,12.85,-3.41667
9172,9172,2362402,Bissanderou,12.21667,-2.91667
9171,9171,2362401,Bisserke,11.26667,-3.25
9170,9170,2362400,Bissia,13.17784,-1.50364
10210,10210,2570179,Bissiga,12.02421,-1.51652
9183,9183,2362413,Bissiga,12.19272,-1.46827
9169,9169,2362399,Bissiga,11.83004,-0.0258
9168,9168,2362398,Bissiga,12.039,-1.46897
9167,9167,2362397,Bissiga,12.06986,-1.29979
9166,9166,2362396,Bissiga,12.28333,-0.78333
9165,9165,2362395,Bissiga,12.43333,-0.53333
9164,9164,2362394,Bissiga,12.61667,-0.93333
9163,9163,2362393,Bissiga,12.70024,-1.20281
9155,9155,2362385,Bissigay,13.587,-2.47819
10275,10275,2570255,Bissighin,12.39354,-1.60484
10883,10883,11913678,Bissighin,12.50923,-1.7206
10899,10899,11915061,Bissiguen,12.78265,-1.52387
9161,9161,2362391,Bissiguen,12.37473,-1.40545
9160,9160,2362390,Bissiguen,13.19441,-1.52784
9159,9159,2362389,Bissiguen,12.97739,-1.26331
9158,9158,2362388,Bissigui,13.14014,-1.2415
9157,9157,2362387,Bissigui,13.331970000000002,-1.94242
10956,10956,11948019,Bissigui,12.92431,-1.10555
10050,10050,2569985,Bissigui,12.24102,-1.67043
9180,9180,2362410,Bissigui Yologo,12.99089,-1.14206
9156,9156,2362386,Bissiguila,12.30361,-1.94127
9154,9154,2362384,Bissimila,12.4,0.31667
9153,9153,2362383,Bissinga,13.471520000000002,-0.54981
10168,10168,2570113,Bissiri,12.10694,-1.63626
9152,9152,2362382,Bissiri,12.09301,-1.22907
9151,9151,2362381,Bissiri,13.16756,-2.64017
9150,9150,2362380,Bisso,12.71667,-3.76667
9149,9149,2362379,Bitebaka,12.82127,-1.77364
9148,9148,2362378,Bitiako,11.81667,-3.01667
2962,2962,2356146,Bitogo,12.53152,-1.51066
9147,9147,2362377,Bitte,11.5,-0.016669999999999997
9146,9146,2362376,Bittou,11.25806,-0.30611
9145,9145,2362375,Biyou,13.43324,-1.18085
9144,9144,2362374,Bizigui,13.49749,-1.52744
9143,9143,2362372,Blari,11.28739,-5.11564
9142,9142,2362371,Ble,12.01667,-3.36667
9141,9141,2362370,Bledougou,10.58333,-5.26667
9140,9140,2362369,Bleni,11.56297,-5.05176
9139,9139,2362368,Bletou,10.53333,-5.25
9138,9138,2362367,Blio,11.34427,-4.78939
9137,9137,2362366,Bo,13.39453,-2.52751
9136,9136,2362365,Boa,12.83333,-3.01667
9135,9135,2362364,Boaboadyoari,12.25,0.76667
9134,9134,2362363,Boadeni,12.08051,1.13192
9133,9133,2362362,Boaken,12.3,-0.46667
9132,9132,2362361,Boala,11.11667,-1.76667
9131,9131,2362360,Boala,12.71142,-1.27108
9130,9130,2362359,Boala,12.88333,-0.7
9129,9129,2362358,Boale,11.4,-1.36667
9127,9127,2362356,Boalen,12.83578,-1.10049
9126,9126,2362355,Boalga,13.28426,-1.50685
9128,9128,2362357,Boalin,12.61224,-1.22579
6643,6643,2359854,Boalin,12.6262,-1.24059
9125,9125,2362354,Boalle,13.30102,-1.57779
9124,9124,2362353,Boara,11.03333,-2.6
9123,9123,2362352,Boare,13.08321,-2.93795
9122,9122,2362351,Boargou,12.4774,1.05332
9121,9121,2362350,Boassa,12.2921,-1.61694
9120,9120,2362349,Boau,11.15,-0.6
9119,9119,2362348,Bobantchougou,13.32686,-0.617
9118,9118,2362347,Bobera,9.9,-3.15
9117,9117,2362346,Bobeta,10.36667,-3.56667
10573,10573,6893794,Bobo,12.2219,-4.1547
10366,10366,6296412,Bobo Dioulasso Airport,11.16006,-4.33097
9115,9115,2362344,Bobo-Dioulasso,11.17715,-4.2979
10625,10625,7647899,Bobo-Dioulasso Mediumwave Transmitter,11.15468,-4.28212
9116,9116,2362345,Boboanga,12.88333,0.3
9114,9114,2362343,Bobonon,11.55,-1.65
9112,9112,2362341,Bobora,11.08333,-2.93333
9113,9113,2362342,Bobora,10.55,-3.16667
9111,9111,2362340,Boboragogo,10.83333,-3.03333
9110,9110,2362339,Bobouneleba,13.28333,-0.21667
9109,9109,2362338,Bodana,9.93333,-3.43333
9107,9107,2362336,Bodeol,14.0824,-0.9101
11112,11112,12176005,Bodiaga,11.80977,1.87292
9105,9105,2362334,Bodialindara,11.2,-3.96667
9103,9103,2362332,Bodovoni,11.36667,-2.56667
9102,9102,2362331,Bodya,13.0577,0.41992
9101,9101,2362330,Bodyargou,12.71667,0.55
11169,11169,12237744,Boeinga,13.2861,-0.6394
9100,9100,2362329,Boenessen-Petit,12.06667,-0.36667
9099,9099,2362328,Bogadelbi,13.64802,0.20551
9098,9098,2362327,Bogadouga,12.4797,1.82718
9097,9097,2362326,Bogalenga,14.60227,-1.4292200000000002
9096,9096,2362325,Bogaloumo,13.52669,0.43263
9095,9095,2362324,Bogaloura,14.14744,-0.8883200000000001
9094,9094,2362323,Bogande,12.9704,-0.14953
10629,10629,7668175,Bogande Airport,12.983,-0.16699999999999998
10731,10731,11204418,Bogande Department,12.967,-0.15
9106,9106,2362335,Bogdin,12.06588,-1.26756
9088,9088,2362317,Boggol Diamni,14.15381,-1.06106
9092,9092,2362321,Bogo,12.95,-3.95
9091,9091,2362320,Bogo,13.2444,-3.8813
9090,9090,2362319,Bogobehere,11.76667,-3.68333
10193,10193,2570152,Bogodogo,12.02308,-1.55249
9087,9087,2362316,Bogotombo,14.02014,-2.21097
8917,8917,2362145,Bogoya,13.63512,-2.42566
9085,9085,2362314,Bogue,12.06667,0.43333
9086,9086,2362315,Bogue,11.68333,-0.016669999999999997
9093,9093,2362322,Boguel,12.47468,2.01283
9084,9084,2362313,Boguel Fassoure,14.223770000000002,-1.48541
9082,9082,2362311,Boguel Kara,14.63516,-0.7863899999999999
10496,10496,6873961,Boguel Tchabou,14.291379999999998,-1.38215
10458,10458,6862571,Boguel Younous,14.89477,-0.59834
9083,9083,2362312,Bogueli,12.26667,0.43333
9081,9081,2362310,Bohara,10.6,-4.01667
9080,9080,2362309,Bohira,10.45,-3.2833300000000003
9079,9079,2362308,Boho,12.41667,-2.61667
9078,9078,2362307,Boho,12.56667,-2.55
9077,9077,2362306,Boho,12.8583,-4.149
9076,9076,2362305,Boho Bereba,11.56667,-3.75
9075,9075,2362304,Boho Kari,11.4,-3.85
9074,9074,2362303,Bohongou,12.49889,0.69972
9073,9073,2362302,Bohui,13.00749,-3.96081
9072,9072,2362301,Boilguen,12.56667,-0.81667
9071,9071,2362300,Boille,11.98333,-0.06667000000000001
9069,9069,2362298,Boin,12.4,-3.05
9070,9070,2362299,Boin,12.4789,-4.3947
11251,11251,12277249,Boinga,13.27372,-0.67703
10039,10039,2569973,Bointenga,12.15568,-1.47459
9068,9068,2362297,Boka,10.31667,-2.86667
9067,9067,2362296,Boke,13.31722,-2.2531
9061,9061,2362290,Boken,12.79378,-1.93779
9063,9063,2362292,Boken,12.51667,-2.2
9066,9066,2362295,Boken,12.01667,-0.16667
9065,9065,2362294,Boken,12.28333,-0.65
9059,9059,2362288,Boken,13.11895,-1.60617
9058,9058,2362287,Boken,13.00806,-1.79028
9064,9064,2362293,Boken,12.33333,-0.5
9060,9060,2362289,Boken,13.09772,-1.37065
9062,9062,2362291,Bokin,12.70489,-1.50271
10744,10744,11205616,Bokin Department,13.0044,-1.79245
9055,9055,2362284,Boko,11.58333,-3.2833300000000003
9056,9056,2362285,Boko,10.33333,-4.2
9057,9057,2362286,Boko,12.71667,-0.4
9054,9054,2362283,Bokoro,13.3261,-4.0747
9053,9053,2362282,Bokowen,12.9955,0.23399
9048,9048,2362277,Bokui,12.9519,-4.0553
9052,9052,2362281,Bokui,11.6,-3.5
9050,9050,2362279,Bokui,12.01667,-3.8
9049,9049,2362278,Bokui,12.58333,-3.46667
9051,9051,2362280,Bokui,11.8,-3.68333
9047,9047,2362276,Bokui-Ouest,11.6,-3.733330000000001
9046,9046,2362275,Bokwen,13.28066,-1.27949
9045,9045,2362274,Bola,11.4,-1.43333
9043,9043,2362272,Bola,12.95,0.58333
9044,9044,2362273,Bola,12.85,0.35
9042,9042,2362271,Bola Bolo,11.16667,-1.68333
9041,9041,2362270,Bolala,10.5,-3.13333
9040,9040,2362269,Bolanbar,11.05,-3.03333
9039,9039,2362268,Bolante,10.75,-5.36667
9038,9038,2362267,Bolare,13.69316,-0.19194
9037,9037,2362266,Bolay,13.59329,0.02069
9036,9036,2362265,Bole,13.4242,-0.5812
9035,9035,2362264,Bole,12.99456,-1.05714
3214,3214,2356399,Bolen,12.74877,-1.28037
9034,9034,2362263,Bolena,11.78333,-3.68333
11071,11071,12088964,Bolkiba,13.67381,-1.48977
10911,10911,11915198,Bolkiengo,12.64288,-1.9294
9032,9032,2362261,Bollae,13.70807,-1.14204
9031,9031,2362260,Bolle,12.38333,-0.76667
9028,9028,2362257,Bolle,13.857879999999998,-0.86808
9029,9029,2362258,Bolle,13.68431,-1.22094
9030,9030,2362259,Bolle,13.36128,-0.74597
9026,9026,2362255,Bolo,11.9,-2.25
9027,9027,2362256,Bolo,10.66667,-3.18333
9025,9025,2362254,Bolo,11.71569,-2.75621
9024,9024,2362253,Bologbe,10.81667,-2.98333
9033,9033,2362262,Bologo,12.62073,-1.95158
9023,9023,2362252,Bologo,12.03333,-0.26667
9022,9022,2362251,Bolomona,13.245679999999998,-0.24076
9021,9021,2362250,Bolongtonga,13.2161,0.70297
9746,9746,2362982,Bolonguen,12.04032,-1.67423
9020,9020,2362249,Bolontou,12.13333,0.03333
9019,9019,2362248,Boloro,12.1,-0.06667000000000001
9018,9018,2362247,Bolougban,10.23333,-3.2833300000000003
9017,9017,2362246,Boman,10.38333,-3.26667
9016,9016,2362245,Bombanyenga,13.19828,-0.27503
9015,9015,2362244,Bombara,10.78333,-3.2833300000000003
10993,10993,11951163,Bombontangou,11.29697,0.62454
9014,9014,2362243,Bombore,12.03333,-0.98333
10678,10678,9881321,Bombore gold mine,12.22527,-0.90302
10554,10554,6875024,Bomborokui,13.00749,-3.96081
9013,9013,2362242,Bomborou,14.0823,-1.76019
9012,9012,2362241,Bomboue,13.68825,-0.10498
9011,9011,2362240,Bombouela,12.1,-3.3
9010,9010,2362239,Bomoi,10.5,-3.08333
11168,11168,12233431,Bomonti,11.90051,1.54989
8961,8961,2362189,Bompela,13.122470000000002,-2.72473
8960,8960,2362188,Bompela,13.16532,-2.75552
9009,9009,2362238,Bomponi,12.15,-3.55
9008,9008,2362237,Bon,11.18333,-2.75
9007,9007,2362236,Bona,11.16933,-4.0025
9006,9006,2362235,Bona,12.8,-0.65
9005,9005,2362234,Bonam,12.32321,-1.5763200000000002
9004,9004,2362233,Bonam,12.78333,-0.6
9003,9003,2362232,Bonapio,11.41667,-2.06667
10205,10205,2570172,Bonatenga,12.0658,-1.50217
9002,9002,2362231,Bonba,11.68333,-3.61667
9001,9001,2362230,Bonbara,10.78333,-3.26667
9000,9000,2362229,Bonbofa,14.03761,-0.31106
8999,8999,2362228,Bonbongou,13.389829999999998,0.60798
8998,8998,2362227,Bonbore,11.71667,-3.41667
8997,8997,2362226,Bonboyel,14.09791,-0.08137
8996,8996,2362225,Bonda,13.49927,-1.51361
8995,8995,2362224,Bondani,12.26667,-3.58333
8994,8994,2362223,Bonde,13.59597,-1.49106
8993,8993,2362222,Bondigui,10.91667,-3.4833300000000005
8992,8992,2362221,Bondimoani,12.55479,0.84139
8991,8991,2362220,Bondo,11.76667,-3.43333
8990,8990,2362219,Bondokui,12.91667,-4.0666699999999985
8989,8989,2362218,Bondomena,10.18333,-3.46667
8988,8988,2362217,Bondorola,10.6,-4.5666699999999985
8987,8987,2362216,Bondoukui,11.84444,-3.76797
8986,8986,2362215,Bondoumena,10.21667,-3.35
8985,8985,2362214,Bondoura,10.28333,-3.55
8984,8984,2362213,Bonessen,12.45,-0.33333
8983,8983,2362212,Bonfan,9.45,-2.81667
8982,8982,2362211,Bonga,10.43333,-3.85
8980,8980,2362209,Bonga,12.23333,0.35
8979,8979,2362208,Bongande,11.2,-0.2
8978,8978,2362207,Bongola,13.93584,-2.26842
8977,8977,2362206,Bongori,12.73023,1.00205
8976,8976,2362205,Bongou,12.85,0.28333
8975,8975,2362204,Boni,11.56667,-3.4
8974,8974,2362202,Bonko,10.33333,-3.3
8973,8973,2362201,Bonko,10.76667,-2.96667
8972,8972,2362200,Bonkongou,12.32657,1.3725
11275,11275,12324455,Bonkongou,12.36948,1.22003
8971,8971,2362199,Bonkonkoaga,12.2004,1.84667
8970,8970,2362198,Bonkore,12.10932,-1.47781
8969,8969,2362197,Bonkossera,10.01667,-3.13333
8968,8968,2362196,Bonkoulou,9.73333,-2.96667
8967,8967,2362195,Bonkoulou,10.3,-3.46667
8966,8966,2362194,Bonogo,12.06803,-1.58819
8964,8964,2362192,Bonouo,13.6957,-2.85867
8963,8963,2362191,Bonpare,10.1,-3.1
8962,8962,2362190,Bonpe,10.46667,-4.78333
8959,8959,2362187,Bonro,13.0458,-3.2145
8958,8958,2362186,Bonsare,11.66667,-0.5
8957,8957,2362185,Bonsera,10.55,-3.15
8956,8956,2362184,Bonsie,11.31667,-3.5
8955,8955,2362183,Bonsiega,13.47769,-0.20189
8954,8954,2362182,Bonsoaga,12.47346,0.88871
8953,8953,2362181,Bonsongari,12.36667,0.33333
8952,8952,2362180,Bonsora,10.55,-3.1
8951,8951,2362179,Bonta,13.23595,0.39859
8950,8950,2362178,Bontanmbima,12.63333,0.85
8949,8949,2362177,Bontioli,10.88333,-3.06667
10672,10672,8693061,Bontioli Reserve Forest,10.859000000000002,-3.123
8948,8948,2362176,Bontou,10.23333,-3.75
8947,8947,2362175,Bontou,10.3,-3.96667
9595,9595,2362827,Bonvale,11.76118,-4.19346
8946,8946,2362174,Bonyolo,12.35,-2.5
8944,8944,2362172,Bonyori,13.22825,0.6412399999999999
8945,8945,2362173,Bonyori,13.18962,0.60523
8943,8943,2362171,Bonzan,11.35,-3.11667
8942,8942,2362170,Bopie,10.55,-2.91667
8941,8941,2362169,Bopiel,10.06667,-2.91667
7858,7858,2361083,Bore,13.93355,-2.62063
8940,8940,2362168,Bore,13.51078,-0.31908000000000003
8939,8939,2362167,Bore,12.98395,-1.62409
10892,10892,11913916,Borebila,12.97706,-1.6081
8938,8938,2362166,Borgane,10.86667,-2.95
8937,8937,2362165,Borguiende,14.11059,-1.7204400000000002
8936,8936,2362164,Bori,11.3,-1.75
8935,8935,2362163,Boriho,10.23333,-3.26667
8934,8934,2362162,Borilli,10.26667,-2.91667
8933,8933,2362161,Borio,14.063770000000002,-2.55694
8932,8932,2362160,Boriogo,11.95,-0.016669999999999997
8931,8931,2362159,Boriou,10.1,-3.83333
8930,8930,2362158,Borko,13.27775,-1.1517
8929,8929,2362157,Borma,13.3315,-3.8435
8928,8928,2362156,Boro,11.65,-1.7
8927,8927,2362155,Borodogo,12.60336,-1.37772
8925,8925,2362153,Borogho,12.15111,-1.79193
8926,8926,2362154,Borogo,11.95,-1.45
8924,8924,2362152,Boromissi,12.95,-0.55
8923,8923,2362151,Boromissi,13.04913,-0.3067
8922,8922,2362150,Boromo,11.74542,-2.93006
10359,10359,6296405,Boromo Airport,11.75,-2.93333
8921,8921,2362149,Boromossi,11.93333,-2.9
8919,8919,2362147,Boron,12.65,-3.91667
8920,8920,2362148,Boron,12.65,-3.5
8918,8918,2362146,Boroni,14.08709,-2.31855
8916,8916,2362144,Bosangre,12.1,0.2
8915,8915,2362143,Bose,14.43286,-0.8478100000000001
8912,8912,2362140,Bosega,12.92675,0.45932
8914,8914,2362142,Bosongri,13.31095,0.44823
8913,8913,2362141,Bossebango,14.36433,-1.87793
8910,8910,2362138,Bossey Boubakari,14.56652,-0.3323
8908,8908,2362136,Bossey Dogabe,14.53039,-0.30529
8911,8911,2362139,Bossey-Barabe,14.542179999999998,-0.33029000000000003
8909,8909,2362137,Bosseydiabe,14.46551,-0.4356100000000001
8906,8906,2362134,Bossien,11.98333,-3.26667
8905,8905,2362133,Bosso,12.53333,-2.8
8904,8904,2362132,Bossogo,12.03333,-3.76667
8903,8903,2362131,Bossomnomogo,13.60099,-2.53963
8902,8902,2362130,Bossomnore,13.59305,-2.54047
8901,8901,2362129,Bossomnore Rimaibe,13.68019,-2.53108
8900,8900,2362128,Bossongari,12.56134,1.81409
8899,8899,2362127,Bossongri,12.9,0.9
8898,8898,2362126,Bossonguiri,13.333470000000002,0.48595
8897,8897,2362125,Bossora,11.7111,-4.09133
8896,8896,2362124,Bossoura,10.08333,-3.5333300000000003
10153,10153,2570097,Boswende,12.47389,-1.42534
8895,8895,2362123,Bote,12.75,-3.5333300000000003
8894,8894,2362122,Botedji,12.71667,0.5
8893,8893,2362121,Boto,11.46667,-1.88333
8892,8892,2362120,Boto,12.33333,-0.36667
8891,8891,2362119,Botonou,13.24753,0.55388
8890,8890,2362118,Botou,12.41778,0.15361
8889,8889,2362117,Botou,12.6628,2.0527
8888,8888,2362116,Bottogo,13.82138,-1.28236
10652,10652,8288555,Bottou Department,12.5154,1.9957
8886,8886,2362114,Bou,11.23333,-2.33333
8887,8887,2362115,Bou,10.51667,-2.95
8885,8885,2362113,Bou,13.69033,-0.8135600000000001
8884,8884,2362112,Bouabou,12.02778,1.57143
8883,8883,2362111,Bouadi Sa,12.4,0.65
8882,8882,2362110,Bouaela,13.311329999999998,-0.84888
8881,8881,2362109,Bouahoun,11.51667,-3.36667
8878,8878,2362106,Bouan,11.91667,-3.7
8879,8879,2362107,Bouan,10.4,-3.06667
8850,8850,2362077,Bouande,11.17833,-4.61425
8877,8877,2362105,Bouandra,13.1366,-0.57916
8876,8876,2362104,Bouandyaga,12.28253,1.56778
8875,8875,2362103,Bouanekui,12.9209,-4.1963
8874,8874,2362102,Bouang,10.35,-3.2833300000000003
8873,8873,2362101,Bouanga,12.40983,-1.91286
8872,8872,2362100,Bouankan,11.18047,-5.09549
8871,8871,2362099,Bouantenga,12.23333,-0.03333
8907,8907,2362135,Bouassie,10.37713,-4.0362800000000005
8870,8870,2362098,Bouasso,12.2,-3.18333
8869,8869,2362097,Bouba,13.26992,0.9209
8868,8868,2362095,Bouban,12.48333,0.78333
10460,10460,6862573,Boubondji,14.90243,-0.076
8867,8867,2362094,Boubou,13.36696,-1.80403
8866,8866,2362093,Bouboulou,12.86667,-2.2
8865,8865,2362092,Boubourou,11.11061,-4.92986
8864,8864,2362091,Boubwonli,12.0,0.96667
8863,8863,2362090,Bouchouwile,13.6183,-3.2452
10597,10597,6930701,Boucle du Mouhoun Region,12.47203,-3.47305
8856,8856,2362083,Boudangou,13.09418,0.12336
8862,8862,2362089,Boudangou,12.13333,0.33333
8861,8861,2362088,Boudaogo,13.35584,-0.06138
8860,8860,2362087,Boudere,13.64519,-1.27425
8859,8859,2362086,Boudiedara,10.88333,-4.2
8858,8858,2362085,Boudieri,12.31647,1.65242
8857,8857,2362084,Boudjadji,14.219079999999998,-1.19567
8855,8855,2362082,Boudou Oudoundou,14.182529999999998,-0.29504
11151,11151,12225000,Boudoudi,14.0181,-1.5171
8854,8854,2362081,Boudri,11.9,-1.43333
8853,8853,2362080,Boudri,12.21667,-0.73333
8852,8852,2362079,Boudtenga,12.485,-1.2604
10997,10997,11980272,Boudtenga-Peulh,12.48602,-1.23793
8851,8851,2362078,Boue,10.5,-4.53333
8848,8848,2362075,Bouen-Yaga,13.4704,-0.24757
8849,8849,2362076,Bouenkoubouga,12.73333,-0.8333299999999999
8847,8847,2362074,Bouere,11.5,-3.68333
8846,8846,2362073,Boufara,11.28333,-2.01667
8845,8845,2362072,Boufian,11.15,-2.46667
8841,8841,2362068,Bouga,13.24135,-1.86628
8844,8844,2362071,Bouganyana,11.75611,-1.7825
8843,8843,2362070,Bougaratanga,12.03333,-2.46667
10742,10742,11205497,Bougnounou,11.83173,-2.10043
10743,10743,11205508,Bougnounou Department,11.80082,-1.98458
8840,8840,2362067,Bougou,13.47751,-0.43542
8839,8839,2362066,Bougoula,10.21667,-4.26667
8838,8838,2362065,Bougoula,10.78333,-5.2333300000000005
8837,8837,2362064,Bougoula,11.23333,-0.38333
8836,8836,2362063,Bougoula,11.83333,-0.8333299999999999
8835,8835,2362062,Bougoule,12.75,-2.3
8834,8834,2362061,Bougoulom,12.26667,-0.66667
8833,8833,2362060,Bougoumbarga,11.9,-1.11667
8832,8832,2362059,Bougoumtenga,12.46658,-1.13947
8831,8831,2362058,Bougounam,13.36259,-2.3925400000000003
8830,8830,2362057,Bougounam Gonga,13.3829,-1.69558
8828,8828,2362055,Bougounam Poalogo Gonga,13.398829999999998,-1.64257
8829,8829,2362056,Bougounam-Koudre,13.38319,-1.6827
8826,8826,2362053,Bougoura,11.96166,-4.45476
8827,8827,2362054,Bougoura,10.71667,-4.1833300000000015
8822,8822,2362049,Bougoure,13.39734,-2.25449
8824,8824,2362051,Bougoure,12.21667,-0.03333
8825,8825,2362052,Bougoure,11.0,-0.5
8823,8823,2362050,Bougoure,12.21667,-0.55
8821,8821,2362048,Bougouriba,10.7,-2.93333
8819,8819,2362046,Bougouritenga,12.29572,-0.51239
8818,8818,2362045,Bougousso,10.66667,-4.08333
10090,10090,2570027,Bougrala,12.04423,-1.42898
10042,10042,2569977,Bougren,12.12343,-1.48582
8842,8842,2362069,Bougue,13.97862,-1.81113
8816,8816,2362043,Bouguiguiri,11.16667,-2.78333
8965,8965,2362193,Bouhahoun,11.48333,-3.76667
8815,8815,2362042,Boui,10.75,-5.3
8814,8814,2362041,Bouidi,12.97391,-1.4280000000000002
8813,8813,2362040,Bouiga,12.92973,-1.66987
8812,8812,2362039,Bouilio,13.0485,-4.1356
8811,8811,2362038,Bouinle,10.18333,-5.01667
8810,8810,2362037,Boukari,14.3585,-0.4679
8809,8809,2362036,Boukarou,13.30247,0.02853
8808,8808,2362035,Boukere,13.67087,-2.7559400000000003
8807,8807,2362034,Boukero,10.66667,-2.95
8806,8806,2362033,Boukou,13.675679999999998,-1.56333
8805,8805,2362032,Boukou,12.5554,-1.8814
8804,8804,2362031,Boukou,12.62645,-1.84285
8803,8803,2362030,Boukou,12.6242,-1.8691
10308,10308,2570332,Boukou,12.31233,-1.6874900000000002
8802,8802,2362029,Boukouma,14.1711,-0.6933
8801,8801,2362028,Boukouma,14.2049,-0.7341
8800,8800,2362027,Bouktenga,12.76324,-1.4180700000000002
8799,8799,2362026,Boukui,13.152,-4.2515
11109,11109,12175874,Boula,13.56342,-0.13047999999999998
8817,8817,2362044,Boula,12.24966,-1.32109
10055,10055,2569991,Boula,12.12335,-1.338
8798,8798,2362025,Boula,12.2125,-1.6361
8797,8797,2362024,Boulala,12.57528,-1.7538900000000002
8796,8796,2362023,Boulani,13.61815,0.55607
8794,8794,2362021,Boulapoi,11.86667,-1.71667
8793,8793,2362020,Boulare,11.88333,-1.15
10986,10986,11948978,Boulba,12.62241,-1.11412
10085,10085,2570022,Boulbi,12.23883,-1.52662
10124,10124,2570062,Boulbi,12.20936,-1.57492
8792,8792,2362019,Boulbi,12.19412,-1.42676
8788,8788,2362015,Boule,13.1933,-3.8333
8787,8787,2362014,Boule,13.39078,-2.87243
8789,8789,2362016,Boule,13.13343,-2.0089900000000003
8790,8790,2362017,Boule,13.114820000000002,-1.99922
8791,8791,2362018,Boule,11.92278,-1.85389
10505,10505,6873980,Boule Boule,14.6865,-1.5197
8785,8785,2362012,Boulel,14.7424,-0.39725
8784,8784,2362011,Boulel,12.70425,2.11504
10546,10546,6874038,Boulel,14.67149,-1.3832799999999998
8783,8783,2362010,Boulel Boue,14.059870000000002,-1.32361
10439,10439,6862552,Bouleli,14.27959,-0.77887
8782,8782,2362009,Boulema,13.55051,-2.2191400000000003
8795,8795,2362022,Boulemporo,13.0991,-3.8497
8781,8781,2362008,Boulga,11.88333,-0.26667
8780,8780,2362007,Boulgou,12.51338,0.82621
8778,8778,2362005,Boulgue,11.78333,-1.15
8777,8777,2362004,Boulgue,13.74529,-0.75388
8776,8776,2362003,Boulgye,12.51667,-2.61667
8770,8770,2361997,Bouli,13.65441,-2.72189
8769,8769,2361996,Bouli,13.25,0.05
8775,8775,2362002,Bouli,10.3,-3.2833300000000003
8774,8774,2362001,Bouli,11.83333,-1.85
8773,8773,2362000,Bouli,12.28701,-1.7366
8772,8772,2361999,Bouli,12.62825,-1.4078
8771,8771,2361998,Bouli,12.77273,-1.09283
8786,8786,2362013,Boulikessi,14.43735,-0.66538
8768,8768,2361995,Boulikiendi,13.460020000000002,-0.22532
8766,8766,2361993,Boulin Bola,14.12198,-2.32957
8765,8765,2361992,Boulin Kiera,9.86667,-3.11667
8767,8767,2361994,Boulinbe,10.65,-3.01667
8764,8764,2361991,Boulirou,11.08333,-1.16667
8763,8763,2361990,Boulissi,11.95,-1.61667
8762,8762,2361989,Boulkenga,13.72411,-0.39733
8760,8760,2361987,Boulkon,12.93537,-1.96227
8759,8759,2361986,Boulli,12.8,-0.8333299999999999
8758,8758,2361985,Boulli,13.129829999999998,-1.25646
8757,8757,2361984,Boulli,13.15598,-1.40603
8756,8756,2361983,Boulli,13.15918,-1.90204
8755,8755,2361982,Boulli,13.180270000000002,-1.81263
8754,8754,2361981,Boulli,13.5431,-1.65505
8753,8753,2361980,Boulli,13.64635,-1.44018
8752,8752,2361979,Boulli Foulbes,13.49242,-1.6344
8751,8751,2361978,Boulma,12.95,-2.13333
8750,8750,2361977,Boulmanga,13.61904,-0.34599
8748,8748,2361975,Boulmiougou,13.2638,-1.34422
8749,8749,2361976,Boulmiougou,12.68333,-0.3
11268,11268,12324290,Boulmoantougou,12.66736,1.24351
8747,8747,2361974,Boulmongo,12.54894,1.17874
8744,8744,2361971,Boulo,10.36347,-4.54328
8746,8746,2361973,Boulo,10.41667,-4.78333
10565,10565,6893652,Boulol Karawal Gourbiri,14.24443,-2.38901
8745,8745,2361972,Boulomde,12.16667,-0.06667000000000001
10648,10648,8199000,Boulon Forest,10.32957,-4.51088
8743,8743,2361970,Boulou,11.28333,-1.45
8742,8742,2361969,Boulouaka,12.66667,-0.15
8741,8741,2361968,Boulouballa,13.95946,0.22176
8740,8740,2361967,Bouloudouo,10.38333,-3.08333
8739,8739,2361966,Boulougan,12.88333,-2.41667
8737,8737,2361964,Boulougou,11.93333,-1.63333
8738,8738,2361965,Boulougou,11.68333,-1.8
8736,8736,2361963,Boulouguen,13.55569,-1.88115
8735,8735,2361962,Boulougui,12.93333,-2.38333
8734,8734,2361961,Bouloule,11.81667,-2.9
8733,8733,2361960,Bouloulou,13.41039,-2.45123
8731,8731,2361958,Bouloum Nabyiri,12.2,-2.25
8732,8732,2361959,Bouloumana,13.63421,-0.42994
11147,11147,12218058,Bouloumbougdi,11.89185,-0.09915
10110,10110,2570048,Bouloumbouyaka,12.05745,-1.33861
8730,8730,2361957,Bouloumpera,9.95,-3.18333
8729,8729,2361956,Boulounga,13.60374,-1.56205
8728,8728,2361955,Boulounsi,13.43095,-2.56985
8727,8727,2361954,Bouloure,12.65,-2.23333
8725,8725,2361952,Bouloy,13.98112,0.01268
8724,8724,2361951,Bouloy,14.69103,-0.41881
8723,8723,2361950,Bouloy Tiouli,14.066870000000002,-0.31628
11064,11064,12076650,Bouloye-Siguidi,14.01676,-0.49877
8722,8722,2361949,Boulpela,12.75001,-1.87845
8721,8721,2361948,Boulpon,12.65,-2.06667
8720,8720,2361947,Boulpore,12.90513,-1.51583
8719,8719,2361946,Boulsa,12.66664,-0.5746899999999999
10628,10628,7668174,Boulsa Airport,12.65,-0.5670000000000001
10619,10619,7054472,Boulsbaongo,13.47141,-1.27017
8717,8717,2361944,Boulsen,12.63333,-0.8
8714,8714,2361941,Boulsen,12.33542,-2.38388
8716,8716,2361943,Boulsi,12.88333,-0.98333
8715,8715,2361942,Boulsi,12.96952,-1.02205
8718,8718,2361945,Boulsin,12.38342,-1.76555
8713,8713,2361940,Boultaka,14.3231,-0.79597
8712,8712,2361939,Boultouanou,12.49831,1.11363
8711,8711,2361938,Boulwando,12.43333,-0.76667
10081,10081,2570018,Boulwango,12.24822,-1.52524
8710,8710,2361937,Boulyanke,13.77906,-1.46492
8709,8709,2361936,Boulyende,12.95,-0.86667
8708,8708,2361935,Boulyendi,13.202329999999998,-0.13299
8726,8726,2361953,Boulzoma,13.82013,-2.41997
8702,8702,2361929,Boum Iri,13.67464,-0.59631
8707,8707,2361934,Boumanga,12.85,0.76667
8706,8706,2361933,Boumboulou,10.65,-3.0
8704,8704,2361931,Boumbour Tile,14.14439,-1.93433
8705,8705,2361932,Boumbourou,14.645879999999998,-0.57291
8703,8703,2361930,Boumeo,10.63333,-3.16667
8701,8701,2361928,Boumtenga,12.28333,-0.58333
8700,8700,2361927,Boumwana,12.09277,0.76665
8699,8699,2361926,Boun,12.48333,-2.8
8697,8697,2361924,Bouna,12.65,-3.13333
8698,8698,2361925,Bouna,12.01667,-3.25
8696,8696,2361923,Bouna,13.251,-3.3969
8695,8695,2361922,Bouna,13.62439,-0.1499
8694,8694,2361921,Bouna,13.770170000000002,-1.97119
11272,11272,12324295,Boundissen,13.735,-0.98146
11066,11066,12076761,Boundore,13.44114,0.90735
10476,10476,6873939,Boundouga,14.19788,-1.92321
8693,8693,2361920,Boundouguel,14.02973,0.08826
8692,8692,2361919,Boundoukamba,13.53836,-2.62215
8691,8691,2361918,Boundyani,12.13313,1.49606
8690,8690,2361917,Boune,12.66667,-3.58333
8689,8689,2361916,Boune,13.64846,-0.09214
11001,11001,11980289,Bouneghin,12.26213,-1.25599
8688,8688,2361915,Bounfara,10.53333,-3.31667
8687,8687,2361914,Bounga,12.21759,2.00895
8981,8981,2362210,Bounga,11.94712,-2.72305
10399,10399,6855117,Bounga,12.26223,2.00303
8686,8686,2361913,Boungan,10.56667,-3.05
8685,8685,2361912,Boungou,12.00123,1.39235
8684,8684,2361911,Bouni,11.16667,-3.31667
11258,11258,12324155,Bounian,14.33557,0.09246
8683,8683,2361910,Bounkoura,10.31667,-3.1
8682,8682,2361909,Bounomtore,11.88333,-1.13333
8680,8680,2361907,Bounou,13.1246,-2.81553
8681,8681,2361908,Bounou,12.8,-2.81667
8678,8678,2361905,Bounoubana,10.56667,-4.0666699999999985
8677,8677,2361904,Bounoumbara,10.13333,-3.21667
8676,8676,2361903,Bounouna,10.66667,-4.7333300000000005
8675,8675,2361902,Bounpa,12.0,0.16667
8674,8674,2361901,Bountara,9.91667,-3.08333
8673,8673,2361900,Boupengou,12.56808,1.64566
8672,8672,2361899,Boupengou,12.53343,1.62829
11185,11185,12238247,Boupiena,11.79429,1.6501400000000002
8627,8627,2361854,Bour Yiri,12.46628,-1.48389
8669,8669,2361896,Boura,12.78635,-2.00393
8668,8668,2361895,Boura,12.98333,-2.31667
8671,8671,2361898,Boura,11.04282,-2.50196
10063,10063,2570000,Boura,12.11432,-1.47063
8670,8670,2361897,Boura,11.65,-1.13333
8667,8667,2361894,Bourasso,12.63333,-3.71667
8666,8666,2361893,Bouravale,11.95633,-4.4107699999999985
8665,8665,2361892,Bourbo,13.4604,-2.40531
8664,8664,2361891,Boure,12.73333,-2.31667
8662,8662,2361889,Boure,13.34312,-2.37512
8661,8661,2361888,Boureli,14.0489,-0.7984
8660,8660,2361887,Boureta,14.09334,-2.26826
8659,8659,2361886,Boureteoun,9.83333,-2.81667
8658,8658,2361885,Bourey,14.13887,-2.50959
8657,8657,2361884,Bourga,13.9033,-0.33712
8655,8655,2361882,Bourgou,13.16725,-0.1394
8656,8656,2361883,Bourgou,13.0332,-3.3018
8652,8652,2361879,Bouri,13.51508,-2.44548
8654,8654,2361881,Bouri,11.78333,-2.51667
8653,8653,2361880,Bouri,11.95,-0.08333
8648,8648,2361875,Bouri Ronse,13.28554,-2.39916
8651,8651,2361878,Bouria,12.82029,-2.18037
8650,8650,2361877,Bourime,10.88333,-3.01667
8649,8649,2361876,Bouriona,11.05,-0.58333
8606,8606,2361833,Bouritenga,12.48136,-1.14846
8647,8647,2361874,Bourki,12.96452,-1.8622
8646,8646,2361873,Bourkina,12.26667,-2.36667
8645,8645,2361872,Bourma,11.55,-0.68333
8644,8644,2361871,Bourmantougou,12.52849,1.47375
8643,8643,2361870,Bouro,13.68935,-2.5904700000000003
8642,8642,2361869,Bouro,14.32007,-1.4328299999999998
8641,8641,2361868,Bourou,11.3,-1.21667
8640,8640,2361867,Bourou,11.65,-2.7
8639,8639,2361866,Bourou,12.05855,-2.01107
8638,8638,2361865,Bouroubourou,11.16667,-3.83333
8637,8637,2361864,Bourouga,12.95,-0.8
8636,8636,2361863,Bourougouna,11.58333,-1.21667
8635,8635,2361862,Bouroukomo,11.1,-2.43333
8634,8634,2361861,Bouroukouti,12.52164,2.1798
8633,8633,2361860,Bouroum,13.61033,-0.64947
8632,8632,2361859,Bouroum Bouroum,10.53333,-3.23333
8631,8631,2361858,Bouroumtinga,11.83333,-1.21667
8630,8630,2361857,Boursouma,13.49655,-2.36533
8629,8629,2361856,Bourtinguel,13.63369,0.62464
8628,8628,2361855,Bourtyana,12.85,0.6
8626,8626,2361853,Bourzanga,13.67806,-1.54611
8625,8625,2361852,Bourzanga Bouko,13.68348,-1.56969
8624,8624,2361851,Bourzoaga,11.2,-0.16667
8623,8623,2361850,Bousera,10.33333,-3.01667
8621,8621,2361848,Bousrima,11.93333,-1.23333
8620,8620,2361847,Boussangli,13.15718,-0.31248000000000004
8619,8619,2361846,Boussara,10.51667,-4.5666699999999985
8617,8617,2361844,Bousse,13.0948,-3.3906
8618,8618,2361845,Bousse,12.66121,-1.89515
8616,8616,2361843,Boussikomi,12.73333,-0.23333
8615,8615,2361842,Boussougou,11.91667,-1.43333
8614,8614,2361841,Boussoukoula,9.83333,-3.1
8613,8613,2361840,Boussoulbi,9.96667,-3.06667
8612,8612,2361839,Boussoum,13.15,-2.95
8607,8607,2361834,Boussouma,13.211520000000002,-1.52911
8610,8610,2361837,Boussouma,11.7,-0.7
8609,8609,2361836,Boussouma,12.91069,-1.0819
8608,8608,2361835,Boussouma,13.02538,-2.56516
8622,8622,2361849,Boussouma,12.82769,-1.08905
8611,8611,2361838,Boussouma,11.53333,-0.33333
10745,10745,11205618,Boussouma Department,13.2167,-1.53333
8605,8605,2361832,Bouti,10.16667,-3.45
8604,8604,2361831,Boutiourou,11.18333,-2.16667
8603,8603,2361830,Boutoko,12.0,-2.21667
8602,8602,2361829,Boutontou,13.29435,0.26137
8601,8601,2361828,Boutougou,12.01361,-1.51447
8600,8600,2361827,Boutwanou,12.55,0.2
8599,8599,2361826,Bouya Bolo,11.18333,-1.76667
8598,8598,2361825,Bouyase,12.05,-2.38333
8597,8597,2361824,Bouyoua,11.68333,-1.85
8596,8596,2361823,Bouyounou,11.8,-1.98333
8595,8595,2361822,Bouyra,13.114870000000002,-1.54436
8594,8594,2361821,Bouzan,11.41667,-3.21667
8593,8593,2361820,Bouzourou,11.38333,-2.68333
8592,8592,2361819,Boyadi,11.1,-3.56667
8591,8591,2361818,Boyague,11.18333,-2.43333
8590,8590,2361817,Bozo,11.03333,-2.66667
8589,8589,2361816,Brama,11.4237,-5.1977
8588,8588,2361815,Brankagou,13.492870000000002,0.33644
8587,8587,2361814,Bredie,11.58333,-2.65
8586,8586,2361813,Brimonga,12.45799,1.54072
8585,8585,2361812,Bronakouli,13.618520000000002,-2.49986
8584,8584,2361811,Broudabougou,11.56667,0.11667
8583,8583,2361810,Bruniora,10.18333,-3.01667
8582,8582,2361809,Burkina Faso,12.5,-1.66667
8581,8581,2361808,Bwakou,12.31667,0.03333
8580,8580,2361807,Bwalye,13.19908,0.6743
8579,8579,2361806,Bwandouri,12.11822,2.13351
8578,8578,2361804,Bwania,11.83333,-1.4
8577,8577,2361803,Bwatam,13.22825,0.7067100000000001
8576,8576,2361802,Bwatamtonga,13.19823,0.7358100000000001
8575,8575,2361801,Bwenbwangou,12.33616,1.7735299999999998
8574,8574,2361800,Bwo,12.15,-2.76667
8573,8573,2361799,Bwolonga,13.6738,0.06208
8572,8572,2361798,Bwomtani,13.261020000000002,0.03602
8571,8571,2361797,Bwon,11.51667,-1.66667
8570,8570,2361796,Bwoni,13.75304,0.10784
8569,8569,2361795,Byati,12.11929,1.65393
8568,8568,2361794,Byepou,12.26667,-2.63333
8567,8567,2361793,Byiri,12.05,-2.56667
8566,8566,2361792,Byisiga,12.83333,-2.38333
8565,8565,2361791,Byiwele,12.36667,-2.7
8564,8564,2361790,Bylyonvalse,12.25,-2.63333
10598,10598,6930703,Cascades Region,10.38,-4.5
8562,8562,2361788,Cella,11.61667,-0.36667
10599,10599,6930704,Centre,12.37874,-1.53276
10803,10803,11900648,Centre Medical Paul VI,12.39885,-1.55726
10600,10600,6930705,Centre-Est,11.78922,-0.35706
10601,10601,6930706,Centre-Nord,13.09829,-1.0855
10602,10602,6930707,Centre-Ouest,12.25488,-2.36876
10603,10603,6930708,Centre-Sud,11.67132,-1.07374
8561,8561,2361787,Chalro,13.10078,-1.26365
8560,8560,2361786,Chanboulga,14.02533,-2.08618
8559,8559,2361785,Charam Charam,14.5021,-0.0594
8558,8558,2361784,Chedana,10.51667,-3.06667
8557,8557,2361783,Chion,10.66667,-5.3166699999999985
8556,8556,2361782,Chitikoy,14.182570000000002,0.26715
8555,8555,2361781,Chokoro,11.18569,-5.15395
5744,5744,2358948,Chutes de Koudou,11.68333,2.31667
10036,10036,2569969,Cissin,12.17339,-1.38903
2306,2306,2355486,Cissin,12.32472,-1.53489
10796,10796,11900621,Cite An II,12.34488,-1.52421
10781,10781,11900516,Cite An III,12.3757,-1.53289
10773,10773,11900411,Cite An IV B,12.39009,-1.56922
10774,10774,11900412,Cite Azimo,12.40413,-1.55898
10775,10775,11900413,Cite de l'Avenir,12.39398,-1.45727
10798,10798,11900623,Cite de la Caisse,12.31054,-1.51716
8554,8554,2361780,Coala,12.55,-2.08333
10692,10692,10342753,Coalla,13.41056,-0.13694
8549,8549,2361775,Da,12.03333,-3.15
8548,8548,2361774,Da,12.43333,-3.18333
8547,8547,2361773,Da,12.98597,-2.91107
11282,11282,12358442,Dabala,12.94407,0.91397
8546,8546,2361772,Dabanadeni,12.74864,1.07084
8545,8545,2361771,Dabare,12.65872,-1.6032799999999998
8544,8544,2361770,Dabega,12.28333,-0.58333
8543,8543,2361769,Dabendyari,12.22434,1.84981
8542,8542,2361768,Dabesma,12.7,-0.16667
8541,8541,2361767,Dabibougou,12.66667,-0.18333
8540,8540,2361766,Dabinsema,11.51667,-1.03333
8539,8539,2361765,Dabiou,11.15,-2.15
8538,8538,2361764,Dabladouo,9.98333,-3.16667
8537,8537,2361763,Dableteon,11.05,-2.7
8536,8536,2361762,Dablo,13.71873,-1.18186
8535,8535,2361761,Dabogtinga,11.88333,-1.53333
8534,8534,2361760,Dabokere,10.78333,-4.26667
8533,8533,2361759,Dabole,11.15,-3.2
8532,8532,2361758,Dabore,11.9,-1.9
8530,8530,2361756,Dabossomnore,13.13964,-0.48261
8529,8529,2361755,Dabougou,13.28023,-0.00773
8527,8527,2361753,Daboura,12.2284,-3.93037
8528,8528,2361754,Daboura,10.45,-3.05
8526,8526,2361752,Daboura,12.61667,0.76667
8525,8525,2361751,Dabourkou,13.38042,-0.75859
8524,8524,2361750,Dabozir,9.9,-2.76667
8523,8523,2361749,Dabozougui,12.57746,-1.27808
8522,8522,2361748,Dabzouri,11.05,-0.41667
8521,8521,2361747,Dadogo,12.85,-0.91667
8520,8520,2361746,Dadounga,13.25691,0.20164
8519,8519,2361745,Dadounga,13.36186,0.27818000000000004
8518,8518,2361744,Dadounin,11.15,-2.68333
8515,8515,2361741,Dafle,13.37493,-1.7675900000000002
8514,8514,2361740,Dafole,12.63333,-0.91667
10766,10766,11352118,Dafra,11.19791,-4.25487
8513,8513,2361739,Dafya,13.58523,-1.16579
8512,8512,2361738,Daga,10.41667,-3.4833300000000005
8511,8511,2361737,Dagale,13.3721,-3.1947
8510,8510,2361736,Dagamba,11.8,-0.96667
8509,8509,2361735,Dagaridye,13.791379999999998,0.02295
8508,8508,2361734,Dagbondouo,10.11667,-3.4
8507,8507,2361733,Dagitenga,12.61667,-2.21667
8506,8506,2361732,Dagmongo,12.32718,-1.44309
8505,8505,2361731,Dagou,10.88333,-3.01667
8504,8504,2361730,Dagou,12.75083,1.08398
8503,8503,2361729,Dagouma,11.91667,-1.28333
8502,8502,2361728,Daguili,11.86667,-1.33333
3093,3093,2356277,Daguilma,12.512,-1.4412
8501,8501,2361727,Dahiri,13.46798,-1.3010700000000002
8500,8500,2361726,Dahisma,13.03868,-1.01735
8499,8499,2361725,Daho,11.5,-2.76667
8498,8498,2361724,Dahon,10.3,-4.0666699999999985
8497,8497,2361723,Dahoure,11.13333,-3.15
8496,8496,2361722,Daiassemnore,11.76667,-1.35
8495,8495,2361721,Daibara,14.09158,-2.45744
8362,8362,2361588,Daimessala,11.96538,-4.87913
8493,8493,2361719,Daka,13.1626,-3.0352
8494,8494,2361720,Daka,14.142870000000002,-1.23607
8492,8492,2361718,Dakapore,11.98333,-2.66667
8491,8491,2361717,Dakaye,11.48333,-2.73333
8490,8490,2361716,Dakaye,11.84306,-1.5627799999999998
8489,8489,2361715,Dakeoule,14.10104,-2.37315
8241,8241,2361467,Dakiegre,12.81044,-1.96571
8488,8488,2361714,Dakira,9.93333,-2.76667
8487,8487,2361713,Dakiri,13.29558,-0.24471
8485,8485,2361711,Dakiskyema,12.55,-0.38333
8486,8486,2361712,Dakisse,12.08292,-1.68447
8484,8484,2361710,Dakistyema,12.68333,-0.48333
8483,8483,2361709,Dakola,12.71667,-2.33333
8482,8482,2361708,Dakole,10.9,-2.86667
8481,8481,2361707,Dakon,12.3,-0.38333
8480,8480,2361706,Dakongo,12.1,-0.53333
8479,8479,2361705,Dakoni,11.63333,-3.7
8477,8477,2361703,Dakonsen,12.15,-0.05
8478,8478,2361704,Dakonsin,12.00943,-0.28629
8476,8476,2361702,Dakonteon,10.21667,-2.88333
8475,8475,2361701,Dakore,13.06968,-1.89796
8474,8474,2361700,Dakoro,10.46667,-5.15
8473,8473,2361699,Dakoue,12.66667,-2.7
8472,8472,2361698,Dakoula,11.08333,-3.11667
8471,8471,2361697,Dakouli,13.05972,-1.8223
8470,8470,2361696,Dakoura,10.33333,-3.3833300000000004
8469,8469,2361695,Dakouration,11.16667,-3.2833300000000003
8468,8468,2361694,Dakpolo Tanzou,10.11667,-2.85
8467,8467,2361693,Dakre,13.71094,-1.07254
8466,8466,2361692,Dakui,12.6,-3.41667
8465,8465,2361691,Dala,14.26741,-0.94153
8464,8464,2361690,Dala,10.85,-4.11667
8463,8463,2361689,Dalan,9.95,-3.7
8462,8462,2361688,Dalanba,9.81667,-4.26667
8461,8461,2361687,Dalanba Daya,12.78333,-3.91667
8460,8460,2361686,Dalati,12.1303,1.11963
8459,8459,2361685,Dalena,10.75,-4.76667
8458,8458,2361684,Daliera,9.76667,-3.06667
8457,8457,2361683,Dalinga,13.77343,-0.21555
8456,8456,2361682,Dalinpouo,10.25,-2.81667
8455,8455,2361681,Dalmal Zogoria,14.29651,-0.98878
8454,8454,2361680,Dalo,11.73333,-2.08333
8452,8452,2361678,Dalo,13.48671,-2.51631
8453,8453,2361679,Dalo,13.2663,-3.1139
8451,8451,2361677,Dalonpouo,10.26667,-2.95
8450,8450,2361676,Daltenga,11.95,-0.48333
8449,8449,2361675,Dama,11.1576,-4.4962800000000005
8448,8448,2361674,Damali,12.98333,0.11667
8447,8447,2361673,Damana,10.36667,-5.05
8446,8446,2361672,Damanadio,10.25,-3.08333
8445,8445,2361671,Damandigui,12.73333,-3.76667
8444,8444,2361670,Damane,13.14563,-1.08377
8443,8443,2361669,Damapouy,12.71667,-2.66667
8361,8361,2361587,Damba,14.42001,-1.39491
10509,10509,6873998,Damba Toussougou,14.73753,-1.27094
10770,10770,11496139,Dambam II,14.566670000000002,0.11667
8442,8442,2361668,Dambatao,14.10532,-2.08585
8441,8441,2361667,Dambiri,14.392270000000002,-1.63605
8440,8440,2361666,Dambouguel,14.19365,-0.37151
8439,8439,2361665,Dambreguesse,13.22969,-1.80379
8438,8438,2361664,Damdegou,13.73856,0.15516
8437,8437,2361663,Damesen,12.23333,-0.41667
8436,8436,2361662,Damesma,13.10628,-1.16837
8435,8435,2361661,Damiougou,12.43333,-0.88333
8434,8434,2361660,Damira,10.3,-3.0
8433,8433,2361659,Damkarko Daga,13.49003,-0.5868800000000001
8432,8432,2361658,Damkarko Nayiri,13.59854,-0.6480100000000001
8429,8429,2361655,Damkieta,12.03331,-1.63203
8430,8430,2361656,Damkoko,13.19138,0.28326
8431,8431,2361657,Damkoko,13.162920000000002,0.24965
8427,8427,2361653,Dammzoussi,11.9,-1.31667
8426,8426,2361652,Damongto,12.26667,-0.93333
8425,8425,2361651,Dampela,14.31864,-0.78004
8424,8424,2361650,Dampsenodie,14.51156,-1.83397
8423,8423,2361649,Damsi,12.30493,-2.0602
8422,8422,2361648,Damzoussi,12.07743,-1.5412
8421,8421,2361647,Dan,10.05,-2.98333
8420,8420,2361646,Dan,10.9,-4.85
8419,8419,2361645,Dan,10.93333,-3.76667
8416,8416,2361642,Dana,12.7,-2.1
2793,2793,2355977,Dana,11.47316,-5.0136400000000005
8417,8417,2361643,Dana,11.85,-2.15
8415,8415,2361641,Danamiara,9.96667,-3.36667
8414,8414,2361640,Dananbara,10.08333,-3.25
8413,8413,2361639,Danaongo,12.64361,-1.02286
8412,8412,2361638,Danawa,13.253520000000002,-2.11526
8411,8411,2361637,Danba,12.18333,-3.36667
8410,8410,2361636,Danbagan,11.11667,-3.05
8409,8409,2361635,Danbal,9.83333,-2.78333
8408,8408,2361634,Danbelala,12.0,-3.08333
8407,8407,2361633,Danbogadye,12.7087,1.45395
8406,8406,2361632,Danboississi,11.03333,0.73333
8405,8405,2361631,Danbouti,12.68131,1.48243
8396,8396,2361622,Dandambara,13.95626,-2.34144
11123,11123,12188505,Dandantili,11.87001,0.41379
8404,8404,2361630,Dande,11.58479,-4.5611
8403,8403,2361629,Dandefanga,14.491979999999998,-0.81233
8402,8402,2361628,Dandeme,11.93333,-2.88333
8401,8401,2361627,Dandere,10.9,-3.08333
8400,8400,2361626,Dandere,11.08333,-2.73333
8399,8399,2361625,Dandougou,10.08333,-4.33333
8398,8398,2361624,Dandougou,10.53333,-4.0666699999999985
8397,8397,2361623,Dandyiwaga,12.04631,1.37219
8395,8395,2361621,Dane Zao,14.296170000000002,-0.90901
8394,8394,2361620,Danfi,11.25,-2.61667
8516,8516,2361742,Danfinnso,11.27235,-4.23002
8393,8393,2361619,Danfouna,11.16667,-1.95
8392,8392,2361618,Dangade,13.97979,-0.10218
8391,8391,2361617,Dangade,14.01551,-0.15283
8390,8390,2361616,Dango,11.66667,-0.7
8389,8389,2361615,Dangoe,11.14128,-3.98261
8388,8388,2361614,Dangou,12.06929,1.58384
8387,8387,2361613,Dangou,12.10404,1.6094
8386,8386,2361612,Dangouadougou,10.2,-5.03333
8385,8385,2361611,Dangouara,10.76667,-3.3
8384,8384,2361610,Dangoumana,12.8,-3.55
8383,8383,2361609,Dangouna,12.0,-3.41667
8382,8382,2361608,Dangounane,11.85735,-4.6161
8381,8381,2361607,Dangue,11.15,-2.33333
8380,8380,2361606,Danhal,10.25196,-3.2029400000000003
8379,8379,2361605,Danhal Pangara,10.18333,-3.23333
8378,8378,2361604,Danhal Pira,10.18333,-3.25
8376,8376,2361602,Dani,14.04969,-0.16205999999999998
8375,8375,2361601,Danialo,11.83333,-2.13333
8374,8374,2361600,Daniera,10.73333,-5.3
8373,8373,2361599,Danikoy,14.01345,0.18206
8372,8372,2361598,Danin,11.48333,-1.81667
8371,8371,2361597,Dankana,10.09052,-2.85196
8370,8370,2361596,Dankanaou,14.08585,-1.88325
8369,8369,2361595,Dankara,13.1069,-3.8697
8368,8368,2361594,Dankari,11.35,-3.63333
8367,8367,2361593,Dankoble,10.81667,-3.23333
8366,8366,2361592,Dankondou,13.27408,0.04541
8365,8365,2361591,Dankongou,13.02415,0.89943
8030,8030,2361255,Dankouro,12.25779,-4.10615
8364,8364,2361590,Dankui,12.1,-3.7
8363,8363,2361589,Danlion,11.11667,-0.85
8359,8359,2361585,Dano,11.91667,-3.36667
10388,10388,6786848,Dano,13.00603,-2.19695
8360,8360,2361586,Dano,11.1464,-3.05784
10674,10674,9035114,Dano Airport,11.13802,-3.07422
10748,10748,11205728,Dano Department,11.14068,-3.0639
8358,8358,2361584,Danouin,13.140999999999998,-2.7021
8357,8357,2361583,Danpan,11.85,-3.75
8356,8356,2361582,Danpieri,13.26463,-0.049760000000000006
8355,8355,2361581,Danrokui,11.66667,-3.78333
8354,8354,2361580,Danse,10.58333,-3.0
8353,8353,2361579,Dantchiadi,13.96749,-0.09217
8352,8352,2361578,Dantoloma,11.90856,-4.53293
8351,8351,2361577,Dantyabonga,12.72213,2.06256
8350,8350,2361576,Dao,11.71667,-2.16667
8349,8349,2361575,Daobaongo,13.37104,-1.05889
8348,8348,2361574,Daoro,13.856329999999998,-0.73945
8347,8347,2361573,Daouanguele,13.53178,-0.15869
8345,8345,2361571,Daoure,14.13787,-1.89895
8517,8517,2361743,Dapala,10.46078,-3.760780000000001
8344,8344,2361570,Dapana,12.23333,-3.5333300000000003
8342,8342,2361568,Dapelego,12.13333,-0.13333
8340,8340,2361566,Dapelgotenga,12.15,-0.4
8341,8341,2361567,Dapelogo,12.67274,-1.5390700000000002
8339,8339,2361565,Daplateoun,9.98333,-2.78333
10249,10249,2570228,Dapoa,12.43736,-1.5279
8338,8338,2361564,Dapola,10.55,-2.91667
8337,8337,2361563,Dapologo,13.20734,-1.24082
8336,8336,2361562,Dapouri,12.04811,-1.82552
8334,8334,2361560,Dapoya,12.7,-2.33333
8333,8333,2361559,Dapoya,13.405879999999998,-2.62022
8335,8335,2361561,Dapoya,12.2,-2.31667
10783,10783,11900518,Dapoya,12.38145,-1.52389
10912,10912,11915202,Dapoya,12.64391,-1.89986
8332,8332,2361558,Dapri,10.76667,-4.75
314,314,2353473,Dar Salam,12.36146,-1.6390900000000002
8311,8311,2361537,Dar Salam,13.327470000000002,0.49399
8310,8310,2361536,Dar Salam,13.46695,0.92302
8331,8331,2361557,Dara,14.25796,-2.51916
8330,8330,2361556,Dara,12.63333,-3.91667
10429,10429,6860077,Dara Goro,14.32976,0.18447
8329,8329,2361555,Darabide,12.11667,-0.16667
8328,8328,2361554,Daralomgomde,13.436929999999998,-1.12789
8327,8327,2361553,Daramandougou,10.81667,-4.55
8325,8325,2361551,Darbiti,13.43431,-1.75607
8326,8326,2361552,Darbiti,13.33294,-1.44937
8324,8324,2361550,Darbonore,11.93333,-1.88333
8323,8323,2361549,Dare,13.0839,-3.3558
8322,8322,2361548,Dareniara,9.88333,-3.25
11239,11239,12261529,Dares-Salam,11.67328,0.43658
10437,10437,6862550,Darga,14.1975,-0.42426
8321,8321,2361547,Darga,14.2,-0.41667
8320,8320,2361546,Dargo,12.71571,-0.28494
8319,8319,2361545,Dargouma,13.397379999999998,-1.82779
8318,8318,2361544,Darguene,13.71032,-2.05311
8317,8317,2361543,Darigma,12.95,-2.56667
8316,8316,2361542,Darigma,13.39427,-1.53596
8315,8315,2361541,Darkoa,13.39189,-1.13275
8314,8314,2361540,Darkotanzou,10.85,-3.23333
10452,10452,6862565,Darkoy,14.67368,-0.06681000000000001
8313,8313,2361539,Darkoy,14.69946,-0.09098
11098,11098,12165951,Darkoye,14.7013,-0.11686
8312,8312,2361538,Darou,12.01667,-3.63333
8309,8309,2361535,Darsalam,13.476,-0.19037
8308,8308,2361534,Darsalam,13.60124,-2.47819
8307,8307,2361533,Darsalami,11.04282,-4.36626
8305,8305,2361531,Dasisa,12.66667,-2.3
8302,8302,2361528,Dassa,12.45033,-2.6875
8306,8306,2361532,Dassamkande,12.05578,-1.22063
8301,8301,2361527,Dassampouigo,12.36667,-0.78333
8300,8300,2361526,Dassamtanga,13.52225,-0.52322
8299,8299,2361525,Dassara,10.08333,-2.88333
8298,8298,2361524,Dassari,13.13163,-0.05325
8297,8297,2361523,Dassasgo,12.38719,-1.46896
10271,10271,2570250,Dassasgo,12.39631,-1.63806
8296,8296,2361522,Dasse,12.44035,-4.08806
8295,8295,2361521,Dassembinda,12.93333,-0.38333
8294,8294,2361520,Dassemnatenga,13.09091,-0.68011
8304,8304,2361530,Dassisse,12.57782,-1.94296
8293,8293,2361519,Datagma,12.59858,-1.18465
8292,8292,2361518,Datambi,13.3961,1.0457
8291,8291,2361517,Datiga,11.11667,-0.58333
8290,8290,2361516,Datomo,11.91667,-3.23333
8289,8289,2361515,Dawaka,12.38333,-0.9
8284,8284,2361510,Dawane Gounde,12.8,-2.03333
8288,8288,2361514,Dawanegomde,12.17846,-1.61805
8287,8287,2361513,Dawanegomde,12.5443,-1.8284
8286,8286,2361512,Dawanegomde,12.11667,-0.51667
8285,8285,2361511,Dawanegomde,12.26998,-1.7770099999999998
8283,8283,2361509,Dawango,13.27211,0.03022
8282,8282,2361508,Dawelgue,12.0968,-1.50999
8281,8281,2361507,Dawevele,11.1,-1.51667
8280,8280,2361506,Dawidema,12.03027,-1.6473799999999998
8346,8346,2361572,Dawirba,13.1296,-0.62735
8279,8279,2361505,Daworo,11.38333,-1.63333
8278,8278,2361504,Dayagretenga,12.69611,-1.26949
8277,8277,2361503,Dayari,12.81667,-0.25
8276,8276,2361502,Dayassemnore,12.31533,-1.7548
8275,8275,2361501,Dayere,11.16667,-2.98333
8274,8274,2361500,Dayoubsi,12.23651,-1.60851
10826,10826,11911807,Dazankiema,12.26264,-1.68612
8273,8273,2361499,Dazanre,12.36667,-0.73333
8272,8272,2361498,Dazouba,10.15,-2.81667
8271,8271,2361497,De,13.69868,-2.87882
10557,10557,6875089,De,11.44018,-5.15536
8270,8270,2361496,Debanga,14.78193,0.01485
8269,8269,2361495,Debe,13.0819,-3.4247
8268,8268,2361494,Debel,14.26808,-1.23296
8267,8267,2361493,Debel,14.291720000000002,-1.87146
8266,8266,2361492,Debel Nague,14.31301,-0.12328
8265,8265,2361491,Debel Nwafa,14.471420000000002,-0.96608
8264,8264,2361490,Debentia,14.57789,-0.35063
8263,8263,2361489,Debere,14.36568,-0.09192
8262,8262,2361488,Debere Arba,14.3006,-0.8372799999999999
8261,8261,2361487,Debere Boulga,14.4334,-0.68209
8258,8258,2361484,Debere Petel,14.24786,-1.72933
8257,8257,2361483,Debere Talata,14.02616,0.04053
8259,8259,2361485,Deberelink,14.33771,-0.14802
8260,8260,2361486,Deberelink,14.35527,-0.22832
8256,8256,2361482,Debetil,14.07518,-1.86261
8255,8255,2361481,Debewambe,13.91089,-0.11079
8254,8254,2361480,Debildani,13.76582,0.47006
8253,8253,2361479,Dedera,10.58333,-3.15
8252,8252,2361478,Dedonia,9.9,-3.05
8251,8251,2361477,Dedougou,12.46338,-3.46075
10364,10364,6296410,Dedougou Airport,12.46105,-3.48794
8250,8250,2361476,Defitara,10.06667,-3.43333
8249,8249,2361475,Degue Degue,10.71667,-4.3166699999999985
8248,8248,2361474,Deguele,11.1,-3.93333
8247,8247,2361473,Deiberi,14.43169,-0.24693
8246,8246,2361472,Dekar,10.4,-3.21667
8245,8245,2361471,Dekoura,12.31667,0.15
8244,8244,2361470,Delega,14.09195,-2.3454
8243,8243,2361469,Delere,12.63821,-1.22936
8242,8242,2361468,Delga,13.148979999999998,-1.14495
8240,8240,2361466,Delkoupourou,12.25,0.18333
8239,8239,2361465,Dem,13.19218,-1.17552
8236,8236,2361462,Dema,12.49015,-4.35581
8235,8235,2361461,Dembam,14.58281,0.12672
8234,8234,2361460,Dembela,12.68333,-3.983330000000001
8233,8233,2361459,Dembila,13.20379,-1.15885
8058,8058,2361283,Dembo,12.80033,-3.97094
8232,8232,2361458,Demmbourla,11.53075,-4.9025
8230,8230,2361456,Demnoudende,13.865520000000002,-0.4979
8231,8231,2361457,Demnouo,13.87081,-0.48843
8228,8228,2361454,Dendiagou,13.4846,0.7105899999999999
8227,8227,2361453,Denea,13.68506,-2.81908
8226,8226,2361452,Deneon,13.56842,-1.50345
8225,8225,2361451,Denga,12.15,-0.23333
8224,8224,2361450,Denga,13.43305,0.69258
8223,8223,2361449,Dengande,14.3803,-0.2273
8222,8222,2361448,Denguilga,13.39981,-1.6988299999999998
8221,8221,2361447,Denissa,12.58333,-3.96667
8220,8220,2361446,Denouara,10.13333,-3.25
8229,8229,2361455,Dentou,14.30425,-1.07635
8219,8219,2361445,Dentougou,12.38485,1.63656
8218,8218,2361444,Deou,14.60084,-0.71901
10747,10747,11205665,Departement de Fada N'gourma,12.0667,0.35
8216,8216,2361442,Depergou,12.96667,-0.15
8217,8217,2361443,Depergou,12.95,-0.13333
8215,8215,2361441,Derbare,9.5,-2.71667
8214,8214,2361440,Dere,12.025,-4.4562
8213,8213,2361439,Dere,14.095529999999998,-2.2305900000000003
8212,8212,2361438,Deregoue,10.75,-4.08333
8210,8210,2361436,Derga,13.259429999999998,-1.94631
8209,8209,2361435,Dergane,10.83333,-2.96667
8211,8211,2361437,Derhogo,13.8019,-2.32967
8208,8208,2361434,Derpon,13.93406,-2.07442
8207,8207,2361433,Dessa,10.5,-2.98333
8205,8205,2361430,Desse,13.985779999999998,-2.43312
8204,8204,2361429,Desse,14.02428,-2.41986
8206,8206,2361431,Desse,13.50685,0.62479
8203,8203,2361428,Dessi,11.51209,-3.39542
10503,10503,6873977,Dessiboulle,14.54455,-1.47586
10519,10519,6874009,Dessioubere,14.52009,-1.43295
8202,8202,2361427,Desso,11.35073,-4.28874
8201,8201,2361426,Dessouma,14.289,-1.55277
8199,8199,2361424,Di,13.169,-3.4151
8198,8198,2361423,Dia,11.31667,-2.48333
8197,8197,2361422,Dia,11.17437,-4.71017
10527,10527,6874017,Diabarou,14.00304,-1.35198
8196,8196,2361421,Diabatou,12.51667,0.81667
8195,8195,2361420,Diabatou,12.73629,0.11338
8194,8194,2361419,Diabedo,14.05882,0.24252
8193,8193,2361418,Diabiga,11.13444,0.55111
10759,10759,11257192,Diabo,12.01667,-0.03333
8192,8192,2361417,Diabo,12.01667,-0.03333
8191,8191,2361416,Diaboandi,11.58333,1.51667
8190,8190,2361415,Diaboulola,10.36667,-3.3833300000000004
8189,8189,2361414,Diael Ara,14.2968,-0.98695
8188,8188,2361413,Diaga,10.5,-3.983330000000001
8187,8187,2361412,Diagarentou,14.45499,-0.40102
8186,8186,2361411,Diaka,12.98498,-0.33662
8185,8185,2361410,Diakora,10.3,-4.88333
7723,7723,2360947,Diala,12.42033,-1.85129
7722,7722,2360946,Diala,12.73696,-1.70797
8184,8184,2361409,Diala,13.0353,-3.2365
8183,8183,2361408,Dialakoro,11.18879,-5.21387
8182,8182,2361407,Diale,11.11667,-1.56667
8181,8181,2361406,Dialgaye,11.96444,-0.37611
10655,10655,8288558,Dialgaye Department,11.9029,-0.3678
8180,8180,2361405,Diali,10.75,-5.3166699999999985
8179,8179,2361404,Dialla,11.4,-0.45
8178,8178,2361403,Diallo,13.1753,-3.9298
8177,8177,2361402,Dialo,11.35,-1.81667
8176,8176,2361401,Dialo,11.95,-1.95
8175,8175,2361400,Diamagara,14.5056,-1.8041
11176,11176,12238105,Diamahoun,12.9817,-3.81
11110,11110,12175961,Diamanga,11.90996,1.9289
11221,11221,12261459,Diamangre,11.20652,0.7521899999999999
10446,10446,6862559,Diamon,14.4165,-0.9212
8174,8174,2361399,Dian,11.16788,-4.87986
8173,8173,2361398,Dian,13.11,-3.2843
8172,8172,2361397,Diana,12.58333,-2.43333
8171,8171,2361396,Dianaperoudouo,9.98333,-3.2
8170,8170,2361395,Dianbile,9.63333,-2.9
8169,8169,2361394,Diandioura,10.35,-4.7333300000000005
8167,8167,2361392,Dianga,12.31667,0.06667000000000001
8168,8168,2361393,Dianga,12.00548,-0.09737
8166,8166,2361391,Diangadore,10.23333,-3.983330000000001
8165,8165,2361390,Diangara,10.63333,-3.01667
8163,8163,2361388,Dianhorokui,11.63333,-3.86667
8162,8162,2361387,Diankondi,12.32667,1.38343
8161,8161,2361386,Diankoudougou,12.41667,-0.16667
8160,8160,2361385,Diankougou,13.32712,-0.14168
8159,8159,2361384,Dianle,11.1,-2.75
8158,8158,2361383,Dianra,13.1055,-3.164
8157,8157,2361382,Diansara,11.06562,-4.8952
8156,8156,2361381,Diansia,11.11667,-1.98333
8155,8155,2361380,Diantara,10.31667,-3.11667
8154,8154,2361379,Diantiogo,11.13333,-1.96667
8152,8152,2361377,Dianvor,11.16667,-2.63333
8153,8153,2361378,Dianvor,11.06045,-2.90556
8151,8151,2361376,Dianvour,11.23333,-3.23333
8091,8091,2361316,Dianwele,13.1509,-3.9536
8150,8150,2361375,Dianze,11.46667,-1.75
8149,8149,2361374,Diaoutel,14.34055,-0.31093000000000004
8148,8148,2361373,Diapaga,12.07305,1.78838
10630,10630,7668176,Diapaga Airport,12.05,1.783
8147,8147,2361372,Diapangou,11.9,-0.016669999999999997
8146,8146,2361371,Diapangou,12.11389,0.18083
8144,8144,2361369,Diara,11.66667,-2.4
8143,8143,2361368,Diarabakoko,10.46667,-4.78333
8142,8142,2361367,Diaradougou,11.29814,-4.43519
8140,8140,2361365,Diarakoro,10.53333,-3.85
8141,8141,2361366,Diarakoro,10.25,-4.03333
10448,10448,6862561,Diaran,14.434,-0.9852
8139,8139,2361364,Diaret,14.03666,-2.14994
8138,8138,2361363,Diari,11.46667,-1.83333
8137,8137,2361362,Diarkadougou,10.9,-3.56667
8136,8136,2361361,Diasara,10.68333,-3.56667
8135,8135,2361360,Diatara,10.0,-3.33333
8134,8134,2361359,Diatou,13.811329999999998,-0.06774
8133,8133,2361358,Diay,14.01327,-2.39997
11211,11211,12253544,Diaya,9.76557,-4.41129
8132,8132,2361357,Diayala,11.3,-0.6333300000000001
8131,8131,2361356,Dibga,13.3246,-0.69498
8130,8130,2361355,Dibi,10.31667,-3.91667
8129,8129,2361354,Dibilou,13.34299,-0.9483
8128,8128,2361353,Dibissi,14.68458,-0.63322
8127,8127,2361352,Dibiti,12.57687,1.80363
8125,8125,2361350,Diboulou,13.09306,-0.92715
11099,11099,12166361,Dida Forest,10.01162,-4.0287
10494,10494,6873959,Didia,14.5713,-1.7319
8124,8124,2361349,Didie,11.58333,-3.3833300000000004
8123,8123,2361348,Didiel,14.11529,-2.32769
8122,8122,2361347,Didiere,14.00731,-1.28552
8121,8121,2361346,Didje,12.1,-2.9
10317,10317,2593810,Didri,12.19991,-1.24679
8120,8120,2361345,Didyir,12.56042,-2.62193
6903,6903,2360116,Die,12.79567,-1.60792
8119,8119,2361344,Diebiou,10.45,-3.26667
8118,8118,2361343,Dieborodouo,10.1,-3.23333
8117,8117,2361342,Diebougou,10.96209,-3.24967
10635,10635,7668181,Diebougou Airport,10.95,-3.25
8116,8116,2361341,Diebourou,10.7,-3.23333
8115,8115,2361340,Diefoula,10.25,-4.7
8113,8113,2361338,Diefourma,11.39903,-4.627
8112,8112,2361337,Diegabile,14.12868,-0.68243
11188,11188,12238250,Diegbala,11.79409,1.69334
8110,8110,2361335,Diegbanao,10.31667,-3.4
8111,8111,2361336,Diegbanao,10.28333,-3.41667
8109,8109,2361334,Diegonao,10.55,-3.36667
8108,8108,2361333,Dieka,10.33333,-2.95
8107,8107,2361332,Diekan,13.3958,-4.0847
8106,8106,2361331,Diekonga,11.48333,0.36667
8105,8105,2361330,Diekui,11.91667,-3.78333
8104,8104,2361329,Diele,13.1081,-3.2515
10123,10123,2570061,Dielen,12.05436,-1.29337
8103,8103,2361328,Dielindiala,10.46667,-3.11667
8102,8102,2361327,Dielisso,10.56667,-4.28333
8101,8101,2361326,Diem,14.23294,-2.2955
7697,7697,2360919,Diemba,12.91384,-1.81276
8100,8100,2361325,Diemi,9.91667,-3.01667
8099,8099,2361324,Diemoukourou,10.76667,-3.23333
8098,8098,2361323,Diena,13.3663,-4.0474
8097,8097,2361322,Diena-Sanakina,13.3736,-4.0503
8096,8096,2361321,Dienboua,11.71667,-1.76667
8095,8095,2361320,Diendie,14.2785,-2.47691
8094,8094,2361319,Dieni,12.7978,-4.0732
8093,8093,2361318,Dienkoa,11.2533,-4.80553
8092,8092,2361317,Diensi,11.56667,-2.76667
7696,7696,2360918,Diensogo,12.85092,-1.48075
8090,8090,2361315,Diepe,10.2,-2.96667
8089,8089,2361314,Diepera,10.1,-3.3833300000000004
8088,8088,2361313,Diepere,10.28333,-3.1
8087,8087,2361312,Diepla,10.65,-3.01667
7692,7692,2360914,Diepo,12.14456,-1.47262
